%time,field.x,field.y,field.z
1580310897465112068,0.0,-0.0183259571459,0.0
1580310897465112068,0.0,-0.00733038285838,0.0
1580310897475175418,0.0,-0.00733038285838,-0.000234223185618
1580310897475175418,0.0,-0.00733038285838,0.000468446371235
1580310897475175418,0.0,0.00855211333477,0.000468446371235
1580310897475175418,0.0,0.00488692190558,0.000468446371235
1580310897475175418,0.0,0.00488692190558,0.0
1580310897475175418,0.0,0.00488692190558,0.00117111592809
1580310897475175418,0.00210818320348,0.00488692190558,0.00117111592809
1580310897475175418,0.0023424063891,0.00488692190558,0.00117111592809
1580310897475175418,0.000702669556853,0.00488692190558,0.00117111592809
1580310897475175418,0.0049188614309,0.00488692190558,0.00117111592809
1580310897485336265,0.0049188614309,-0.00366519142919,0.00117111592809
1580310897495394083,0.00257662957472,-0.00366519142919,0.00117111592809
1580310897495394083,0.000702669556853,-0.00366519142919,0.00117111592809
1580310897495394083,0.000702669556853,-0.00977384381117,0.00117111592809
1580310897495394083,0.000702669556853,0.00733038285838,0.00117111592809
1580310897495394083,0.000702669556853,0.00366519142919,0.00117111592809
1580310897495394083,-0.00163956229932,0.00366519142919,0.00117111592809
1580310897495394083,0.000234223185618,0.00366519142919,0.00117111592809
1580310897495394083,0.000702669556853,0.00366519142919,0.00117111592809
1580310897505451814,0.000702669556853,0.00366519142919,0.00140533911371
1580310897505451814,0.000702669556853,0.00366519142919,0.00117111592809
1580310897505451814,0.000702669556853,0.00366519142919,-0.0023424063891
1580310897505451814,0.000702669556853,0.00366519142919,-0.00327929913157
1580310897505451814,0.000702669556853,-0.00610865238198,-0.00327929913157
1580310897505451814,0.000702669556853,-0.00488692190558,-0.00327929913157
1580310897505451814,0.000936892742471,-0.00488692190558,-0.00327929913157
1580310897505451814,0.00281085276034,-0.00488692190558,-0.00327929913157
1580310897515525369,0.00281085276034,-0.00488692190558,0.00210818320348
1580310897515525369,0.00281085276034,-0.00488692190558,0.0
1580310897515525369,0.00281085276034,-0.00488692190558,-0.00117111592809
1580310897515525369,0.00281085276034,-0.00366519142919,-0.00117111592809
1580310897515525369,0.00281085276034,-0.00488692190558,-0.00117111592809
1580310897515525369,0.00281085276034,-0.00855211333477,-0.00117111592809
1580310897515525369,-0.000234223185618,-0.00855211333477,-0.00117111592809
1580310897515525369,0.00281085276034,-0.00855211333477,-0.00117111592809
1580310897515525369,0.00281085276034,-0.00855211333477,0.00187378548494
1580310897515525369,0.00281085276034,-0.00855211333477,0.0
1580310897515525369,0.00281085276034,-0.00855211333477,-0.000702669556853
1580310897525669319,0.00281085276034,-0.00855211333477,-0.000702669556853
1580310897525669319,0.00281085276034,0.0109955742876,-0.000702669556853
1580310897525669319,0.00281085276034,0.0109955742876,0.00304507594595
1580310897525669319,0.00281085276034,0.0109955742876,0.00117111592809
1580310897525669319,0.00281085276034,-0.0183259571459,0.00117111592809
1580310897535736132,0.0023424063891,-0.0183259571459,0.00117111592809
1580310897535736132,0.00374774550281,-0.0183259571459,0.00117111592809
1580310897535736132,-0.0023424063891,-0.0183259571459,0.00117111592809
1580310897535736132,-0.00140533911371,-0.0183259571459,0.00117111592809
1580310897535736132,-0.00140533911371,-0.0109955742876,0.00117111592809
1580310897535736132,-0.00140533911371,0.00366519142919,0.00117111592809
1580310897535736132,-0.00140533911371,-0.00366519142919,0.00117111592809
1580310897535736132,-0.00140533911371,-0.00366519142919,0.000936892742471
1580310897535736132,-0.00140533911371,-0.00366519142919,0.00327929913157
1580310897535736132,-0.00140533911371,-0.00366519142919,0.00515308461651
1580310897545797179,-0.000234223185618,-0.00366519142919,0.00515308461651
1580310897545797179,0.00140533911371,-0.00366519142919,0.00515308461651
1580310897545797179,-0.00210818320348,-0.00366519142919,0.00515308461651
1580310897545797179,-0.00210818320348,-0.0109955742876,0.00515308461651
1580310897545797179,-0.00210818320348,-0.0109955742876,0.0049188614309
1580310897545797179,-0.00210818320348,-0.0109955742876,0.000234223185618
1580310897555853983,-0.00210818320348,-0.0012217304764,0.000234223185618
1580310897555853983,-0.00210818320348,0.00977384381117,0.000234223185618
1580310897555853983,0.0,0.00977384381117,0.000234223185618
1580310897555853983,0.00374774550281,0.00977384381117,0.000234223185618
1580310897555853983,0.00281085276034,0.00977384381117,0.000234223185618
1580310897555853983,0.00281085276034,0.00977384381117,-0.00210818320348
1580310897565911714,0.00281085276034,0.012217304764,-0.00210818320348
1580310897565911714,0.00281085276034,0.0,-0.00210818320348
1580310897565911714,0.00281085276034,-0.00366519142919,-0.00210818320348
1580310897565911714,0.00140533911371,-0.00366519142919,-0.00210818320348
1580310897565911714,0.00398196868843,-0.00366519142919,-0.00210818320348
1580310897565911714,0.00398196868843,-0.00366519142919,-0.000936892742471
1580310897565911714,0.00398196868843,-0.00366519142919,0.00281085276034
1580310897565911714,0.00398196868843,0.012217304764,0.00281085276034
1580310897565911714,0.00398196868843,0.00733038285838,0.00281085276034
1580310897575976215,0.00398196868843,0.00733038285838,-0.0023424063891
1580310897575976215,0.00515308461651,0.00733038285838,-0.0023424063891
1580310897575976215,0.00515308461651,0.00733038285838,-0.00140533911371
1580310897575976215,0.00515308461651,0.00733038285838,0.000702669556853
1580310897575976215,0.00445041505966,0.00733038285838,0.000702669556853
1580310897575976215,0.00445041505966,-0.012217304764,0.000702669556853
1580310897575976215,0.00445041505966,-0.0268780704807,0.000702669556853
1580310897575976215,0.00445041505966,-0.0268780704807,0.00398196868843
1580310897575976215,0.00445041505966,-0.0268780704807,0.00374774550281
1580310897586061469,0.00445041505966,-0.00610865238198,0.00374774550281
1580310897586061469,0.00445041505966,0.00855211333477,0.00374774550281
1580310897596133944,0.00445041505966,0.00855211333477,0.00936927649056
1580310897596133944,0.00445041505966,0.00855211333477,0.00257662957472
1580310897596133944,0.00351352231719,0.00855211333477,0.00257662957472
1580310897596133944,0.00304507594595,0.00855211333477,0.00257662957472
1580310897596133944,0.00608997735898,0.00855211333477,0.00257662957472
1580310897596133944,0.00421619187404,0.00855211333477,0.00257662957472
1580310897596133944,0.00421619187404,0.00366519142919,0.00257662957472
1580310897596133944,0.00421619187404,0.00733038285838,0.00257662957472
1580310897606165651,0.0,0.00733038285838,0.00257662957472
1580310897606165651,-0.000234223185618,0.00733038285838,0.00257662957472
1580310897606165651,0.00468463824528,0.00733038285838,0.00257662957472
1580310897606165651,0.00421619187404,0.00733038285838,0.00257662957472
1580310897616554045,0.00421619187404,0.00244346095279,0.00257662957472
1580310897616554045,0.00421619187404,0.00610865238198,0.00257662957472
1580310897616554045,0.00421619187404,0.0,0.00257662957472
1580310897616554045,0.00421619187404,0.0,0.00468463824528
1580310897616554045,0.00421619187404,0.0,0.00515308461651
1580310897616554045,0.00421619187404,0.0,0.00187378548494
1580310897616554045,0.00421619187404,0.0,0.000234223185618
1580310897616554045,0.00304507594595,0.0,0.000234223185618
1580310897616554045,0.00257662957472,0.0,0.000234223185618
1580310897616554045,0.00327929913157,0.0,0.000234223185618
1580310897626621037,0.00585575417337,0.0,0.000234223185618
1580310897626621037,0.00585575417337,-0.00855211333477,0.000234223185618
1580310897626621037,0.00585575417337,0.00366519142919,0.000234223185618
1580310897626621037,0.00585575417337,-0.00366519142919,0.000234223185618
1580310897626621037,0.00585575417337,-0.00366519142919,-0.00187378548494
1580310897626621037,0.00585575417337,-0.00366519142919,-0.00210818320348
1580310897626621037,0.00585575417337,-0.00366519142919,-0.00304507594595
1580310897626621037,0.00585575417337,-0.00366519142919,0.000936892742471
1580310897626621037,0.00585575417337,-0.00366519142919,0.00187378548494
1580310897626621037,0.00585575417337,-0.0158824961931,0.00187378548494
1580310897626621037,0.00585575417337,-0.00977384381117,0.00187378548494
1580310897626621037,0.00304507594595,-0.00977384381117,0.00187378548494
1580310897626621037,0.000936892742471,-0.00977384381117,0.00187378548494
1580310897626621037,0.000936892742471,-0.00977384381117,0.00538730780213
1580310897626621037,0.000936892742471,-0.00977384381117,0.00351352231719
1580310897636687980,0.000936892742471,0.00855211333477,0.00351352231719
1580310897636687980,0.000936892742471,0.0219911485751,0.00351352231719
1580310897636687980,0.000936892742471,0.0219911485751,0.00351352231719
1580310897636687980,0.00398196868843,0.0219911485751,0.00351352231719
1580310897636687980,0.00398196868843,0.0219911485751,-0.000702669556853
1580310897636687980,0.00398196868843,0.0219911485751,0.000234223185618
1580310897636687980,0.00398196868843,0.0134390352404,0.000234223185618
1580310897636687980,0.00398196868843,-0.012217304764,0.000234223185618
1580310897646755354,0.00398196868843,-0.00977384381117,0.000234223185618
1580310897656847315,0.00398196868843,-0.0109955742876,0.000234223185618
1580310897656847315,0.00398196868843,-0.0207694180987,0.000234223185618
1580310897656847315,-0.00257662957472,-0.0207694180987,0.000234223185618
1580310897656847315,0.00163956229932,-0.0207694180987,0.000234223185618
1580310897656847315,0.00632437507753,-0.0207694180987,0.000234223185618
1580310897656847315,0.00117111592809,-0.0207694180987,0.000234223185618
1580310897656847315,0.00117111592809,-0.0109955742876,0.000234223185618
1580310897656847315,0.00117111592809,-0.0109955742876,0.000936892742471
1580310897656847315,0.00117111592809,-0.0109955742876,0.00187378548494
1580310897656847315,0.00117111592809,-0.0109955742876,-0.00117111592809
1580310897656847315,0.00117111592809,-0.0109955742876,-0.00398196868843
1580310897656847315,0.0023424063891,-0.0109955742876,-0.00398196868843
1580310897656847315,0.00117111592809,-0.0109955742876,-0.00398196868843
1580310897666918235,0.00117111592809,-0.0109955742876,0.000234223185618
1580310897666918235,0.00117111592809,0.00488692190558,0.000234223185618
1580310897666918235,0.00117111592809,0.00488692190558,-0.000936892742471
1580310897666918235,0.00187378548494,0.00488692190558,-0.000936892742471
1580310897666918235,0.00351352231719,0.00488692190558,-0.000936892742471
1580310897676979527,0.00351352231719,-0.00366519142919,-0.000936892742471
1580310897676979527,0.00351352231719,-0.00855211333477,-0.000936892742471
1580310897676979527,0.00351352231719,-0.00855211333477,-0.000234223185618
1580310897676979527,0.00351352231719,-0.00855211333477,-0.00140533911371
1580310897676979527,0.00140533911371,-0.00855211333477,-0.00140533911371
1580310897676979527,0.00281085276034,-0.00855211333477,-0.00140533911371
1580310897676979527,0.00281085276034,-0.00855211333477,-0.00304507594595
1580310897676979527,0.00281085276034,-0.00855211333477,0.0
1580310897697111338,0.00281085276034,0.0,0.0
1580310897697111338,0.00281085276034,0.0109955742876,0.0
1580310897697111338,0.00281085276034,0.0012217304764,0.0
1580310897697111338,0.00281085276034,0.00610865238198,0.0
1580310897697111338,0.00281085276034,0.00610865238198,0.0
1580310897697111338,0.00281085276034,0.00610865238198,0.0
1580310897697111338,0.00327929913157,0.00610865238198,0.0
1580310897697111338,0.00304507594595,0.00610865238198,0.0
1580310897697111338,0.00304507594595,0.00610865238198,0.00445041505966
1580310897707319763,0.00304507594595,0.00610865238198,0.000936892742471
1580310897707319763,0.00304507594595,0.00610865238198,-0.00117111592809
1580310897707319763,0.00304507594595,0.00610865238198,0.000234223185618
1580310897707319763,0.00117111592809,0.00610865238198,0.000234223185618
1580310897707319763,-0.000234223185618,0.00610865238198,0.000234223185618
1580310897707319763,0.0049188614309,0.00610865238198,0.000234223185618
1580310897707319763,0.0049188614309,0.00977384381117,0.000234223185618
1580310897707319763,0.0049188614309,-0.0195476876223,0.000234223185618
1580310897707319763,0.0049188614309,-0.0171042266695,0.000234223185618
1580310897707319763,0.0049188614309,-0.00610865238198,0.000234223185618
1580310897717382761,0.0049188614309,-0.00610865238198,0.00140533911371
1580310897717382761,0.0049188614309,-0.00610865238198,0.0023424063891
1580310897717382761,0.0049188614309,-0.00610865238198,-0.00210818320348
1580310897717382761,0.0049188614309,-0.00610865238198,-0.00187378548494
1580310897717382761,0.00210818320348,-0.00610865238198,-0.00187378548494
1580310897717382761,-0.000234223185618,-0.00610865238198,-0.00187378548494
1580310897717382761,-0.000234223185618,-0.00366519142919,-0.00187378548494
1580310897717382761,-0.000234223185618,0.0,-0.00187378548494
1580310897717382761,-0.000234223185618,0.0,-0.00257662957472
1580310897717382761,-0.000234223185618,0.0,-0.00374774550281
1580310897717382761,-0.000234223185618,-0.00733038285838,-0.00374774550281
1580310897717382761,-0.000234223185618,0.00366519142919,-0.00374774550281
1580310897717382761,-0.00304507594595,0.00366519142919,-0.00374774550281
1580310897717382761,-0.00351352231719,0.00366519142919,-0.00374774550281
1580310897727467080,-0.00351352231719,0.00366519142919,-0.00468463824528
1580310897737554294,-0.00351352231719,0.00366519142919,-0.00515308461651
1580310897737554294,-0.00351352231719,0.00366519142919,-0.000936892742471
1580310897737554294,-0.00351352231719,0.00366519142919,-0.00140533911371
1580310897737554294,-0.00351352231719,-0.0158824961931,-0.00140533911371
1580310897747693672,-0.00351352231719,-0.00977384381117,-0.00140533911371
1580310897747693672,-0.00187378548494,-0.00977384381117,-0.00140533911371
1580310897747693672,0.0,-0.00977384381117,-0.00140533911371
1580310897747693672,-0.000702669556853,-0.00977384381117,-0.00140533911371
1580310897747693672,0.00117111592809,-0.00977384381117,-0.00140533911371
1580310897747693672,0.00117111592809,-0.00244346095279,-0.00140533911371
1580310897747693672,0.00117111592809,0.00610865238198,-0.00140533911371
1580310897747693672,0.00117111592809,0.00610865238198,-0.00281085276034
1580310897747693672,0.00117111592809,0.00610865238198,-0.00351352231719
1580310897747693672,0.00117111592809,0.00610865238198,-0.00163956229932
1580310897747693672,0.00117111592809,0.00366519142919,-0.00163956229932
1580310897747693672,0.00117111592809,0.0146607657168,-0.00163956229932
1580310897747693672,0.00117111592809,-0.00488692190558,-0.00163956229932
1580310897747693672,0.00257662957472,-0.00488692190558,-0.00163956229932
1580310897747693672,0.00304507594595,-0.00488692190558,-0.00163956229932
1580310897757752211,0.000936892742471,-0.00488692190558,-0.00163956229932
1580310897757752211,0.000936892742471,0.00610865238198,-0.00163956229932
1580310897757752211,-0.00281085276034,0.00610865238198,-0.00163956229932
1580310897757752211,-0.00281085276034,0.00244346095279,-0.00163956229932
1580310897757752211,-0.00281085276034,0.00733038285838,-0.00163956229932
1580310897757752211,0.000234223185618,0.00733038285838,-0.00163956229932
1580310897757752211,0.0023424063891,0.00733038285838,-0.00163956229932
1580310897757752211,0.0023424063891,0.00733038285838,-0.00163956229932
1580310897757752211,0.0023424063891,-0.0232128790515,-0.00163956229932
1580310897767809244,0.0023424063891,-0.0232128790515,0.000936892742471
1580310897767809244,0.0023424063891,-0.0232128790515,0.00374774550281
1580310897767809244,0.0023424063891,-0.0232128790515,0.0
1580310897767809244,0.0023424063891,-0.0232128790515,-0.00140533911371
1580310897767809244,0.0023424063891,-0.00610865238198,-0.00140533911371
1580310897767809244,0.00117111592809,-0.00610865238198,-0.00140533911371
1580310897777896611,0.00117111592809,-0.00610865238198,0.00515308461651
1580310897777896611,0.00117111592809,-0.00610865238198,0.00445041505966
1580310897777896611,0.000936892742471,-0.00610865238198,0.00445041505966
1580310897777896611,-0.00187378548494,-0.00610865238198,0.00445041505966
1580310897777896611,-0.00187378548494,-0.0146607657168,0.00445041505966
1580310897777896611,-0.00187378548494,-0.0134390352404,0.00445041505966
1580310897777896611,-0.00187378548494,-0.0134390352404,0.00538730780213
1580310897777896611,-0.00187378548494,-0.0134390352404,0.00538730780213
1580310897777896611,0.00117111592809,-0.0134390352404,0.00538730780213
1580310897777896611,0.0,-0.0134390352404,0.00538730780213
1580310897777896611,0.0,0.00855211333477,0.00538730780213
1580310897777896611,0.0,0.0146607657168,0.00538730780213
1580310897788465824,0.0,0.0146607657168,0.00117111592809
1580310897788465824,0.0,0.0146607657168,-0.00140533911371
1580310897798544109,0.0,0.00855211333477,-0.00140533911371
1580310897798544109,0.0,0.00855211333477,-0.00140533911371
1580310897798544109,0.0,-0.00610865238198,-0.00140533911371
1580310897798544109,0.0,-0.00610865238198,-0.00140533911371
1580310897798544109,0.0,-0.00610865238198,-0.00140533911371
1580310897798544109,-0.00117111592809,-0.00610865238198,-0.00140533911371
1580310897798544109,0.00398196868843,-0.00610865238198,-0.00140533911371
1580310897798544109,0.00468463824528,-0.00610865238198,-0.00140533911371
1580310897808718308,0.00468463824528,-0.00977384381117,-0.00140533911371
1580310897808718308,0.00468463824528,0.00244346095279,-0.00140533911371
1580310897808718308,0.00468463824528,0.00244346095279,-0.00210818320348
1580310897808718308,0.00468463824528,0.00244346095279,-0.00398196868843
1580310897808718308,0.00468463824528,0.00244346095279,-0.00562153098775
1580310897808718308,0.00468463824528,0.00244346095279,-0.00281085276034
1580310897808718308,0.00304507594595,0.00244346095279,-0.00281085276034
1580310897808718308,-0.00187378548494,0.00244346095279,-0.00281085276034
1580310897818784287,-0.00187378548494,0.0,-0.00281085276034
1580310897818784287,-0.00187378548494,0.0280998009571,-0.00281085276034
1580310897818784287,-0.00187378548494,0.0280998009571,-0.00398196868843
1580310897818784287,-0.00187378548494,0.0280998009571,-0.00468463824528
1580310897818784287,-0.00187378548494,0.0280998009571,-0.00327929913157
1580310897818784287,-0.00304507594595,0.0280998009571,-0.00327929913157
1580310897818784287,-0.00374774550281,0.0280998009571,-0.00327929913157
1580310897818784287,-0.00374774550281,0.00855211333477,-0.00327929913157
1580310897818784287,-0.00374774550281,0.00733038285838,-0.00327929913157
1580310897818784287,-0.00374774550281,0.00733038285838,-0.00187378548494
1580310897818784287,-0.00374774550281,0.00733038285838,-0.000468446371235
1580310897818784287,0.000702669556853,0.00733038285838,-0.000468446371235
1580310897818784287,0.00304507594595,0.00733038285838,-0.000468446371235
1580310897828863160,0.00304507594595,0.00733038285838,-0.00163956229932
1580310897839087905,0.00304507594595,0.00733038285838,0.000234223185618
1580310897839087905,0.00304507594595,0.00733038285838,0.0023424063891
1580310897839087905,0.000468446371235,0.00733038285838,0.0023424063891
1580310897839087905,-0.000468446371235,0.00733038285838,0.0023424063891
1580310897839087905,-0.000936892742471,0.00733038285838,0.0023424063891
1580310897839087905,-0.000702669556853,0.00733038285838,0.0023424063891
1580310897839087905,-0.000702669556853,0.00855211333477,0.0023424063891
1580310897839087905,-0.000702669556853,-0.00733038285838,0.0023424063891
1580310897839087905,-0.000702669556853,-0.0244346095279,0.0023424063891
1580310897849263807,-0.000702669556853,0.00733038285838,0.0023424063891
1580310897849263807,-0.000702669556853,0.00733038285838,-0.00163956229932
1580310897849263807,0.000702669556853,0.00733038285838,-0.00163956229932
1580310897849263807,0.00210818320348,0.00733038285838,-0.00163956229932
1580310897849263807,-0.000468446371235,0.00733038285838,-0.00163956229932
1580310897849263807,-0.000468446371235,0.0183259571459,-0.00163956229932
1580310897849263807,-0.000468446371235,-0.00366519142919,-0.00163956229932
1580310897849263807,-0.000468446371235,-0.00855211333477,-0.00163956229932
1580310897859675791,-0.000468446371235,-0.00855211333477,0.00374774550281
1580310897859675791,-0.000468446371235,-0.00855211333477,0.00819816056247
1580310897859675791,-0.000468446371235,-0.00855211333477,-0.000936892742471
1580310897859675791,-0.000702669556853,-0.00855211333477,-0.000936892742471
1580310897859675791,0.0,-0.00855211333477,-0.000936892742471
1580310897859675791,0.0,-0.00610865238198,-0.000936892742471
1580310897859675791,0.0,0.0,-0.000936892742471
1580310897859675791,0.0,0.0,0.000702669556853
1580310897859675791,0.0,0.0,-0.000702669556853
1580310897859675791,0.000234223185618,0.0,-0.000702669556853
1580310897859675791,-0.00163956229932,0.0,-0.000702669556853
1580310897859675791,-0.00163956229932,-0.00488692190558,-0.000702669556853
1580310897869732714,-0.00163956229932,-0.012217304764,-0.000702669556853
1580310897869732714,-0.00163956229932,-0.012217304764,-0.000234223185618
1580310897869732714,-0.00163956229932,-0.012217304764,-0.00117111592809
1580310897869732714,-0.00163956229932,-0.012217304764,-0.000468446371235
1580310897879790045,-0.00163956229932,-0.012217304764,-0.000936892742471
1580310897879790045,-0.00163956229932,-0.012217304764,0.000936892742471
1580310897879790045,-0.00163956229932,0.00244346095279,0.000936892742471
1580310897879790045,-0.00163956229932,0.00366519142919,0.000936892742471
1580310897891205387,-0.000234223185618,0.00366519142919,0.000936892742471
1580310897891205387,-0.00562153098775,0.00366519142919,0.000936892742471
1580310897891205387,-0.00140533911371,0.00366519142919,0.000936892742471
1580310897891205387,0.0,0.00366519142919,0.000936892742471
1580310897891205387,0.0,0.0109955742876,0.000936892742471
1580310897891205387,0.0,0.0,0.000936892742471
1580310897891205387,0.0,0.00733038285838,0.000936892742471
1580310897891205387,0.0,0.00855211333477,0.000936892742471
1580310897891205387,-0.00304507594595,0.00855211333477,0.000936892742471
1580310897891205387,-0.00421619187404,0.00855211333477,0.000936892742471
1580310897891205387,-0.00515308461651,0.00855211333477,0.000936892742471
1580310897901259557,-0.00515308461651,0.00855211333477,-0.00281085276034
1580310897901259557,-0.00515308461651,0.00855211333477,0.0
1580310897901259557,-0.00515308461651,0.00855211333477,0.00140533911371
1580310897901259557,-0.00515308461651,0.00855211333477,0.00187378548494
1580310897901259557,-0.00515308461651,0.00488692190558,0.00187378548494
1580310897901259557,-0.00515308461651,0.0,0.00187378548494
1580310897901259557,-0.00515308461651,0.0012217304764,0.00187378548494
1580310897901259557,-0.00257662957472,0.0012217304764,0.00187378548494
1580310897901259557,0.000234223185618,0.0012217304764,0.00187378548494
1580310897911333320,0.000234223185618,0.0012217304764,0.0
1580310897911333320,0.000234223185618,0.0012217304764,-0.000234223185618
1580310897911333320,0.000234223185618,0.0012217304764,0.000234223185618
1580310897911333320,0.00117111592809,0.0012217304764,0.000234223185618
1580310897911333320,0.00117111592809,0.00244346095279,0.000234223185618
1580310897911333320,0.00117111592809,-0.00488692190558,0.000234223185618
1580310897911333320,-0.00140533911371,-0.00488692190558,0.000234223185618
1580310897921395357,-0.00140533911371,-0.00488692190558,-0.000702669556853
1580310897921395357,-0.00140533911371,-0.00488692190558,-0.0023424063891
1580310897921395357,-0.00140533911371,0.00977384381117,-0.0023424063891
1580310897921395357,-0.00140533911371,0.0134390352404,-0.0023424063891
1580310897921395357,-0.00140533911371,0.0134390352404,0.000468446371235
1580310897921395357,-0.00140533911371,0.0134390352404,-0.00374774550281
1580310897931479226,0.00327929913157,0.0134390352404,-0.00374774550281
1580310897931479226,0.00655859826314,0.0134390352404,-0.00374774550281
1580310897931479226,0.00351352231719,0.0134390352404,-0.00374774550281
1580310897931479226,0.00210818320348,0.0134390352404,-0.00374774550281
1580310897941576493,0.00117111592809,0.0134390352404,-0.00374774550281
1580310897941576493,-0.00140533911371,0.0134390352404,-0.00374774550281
1580310897941576493,-0.00163956229932,0.0134390352404,-0.00374774550281
1580310897941576493,-0.00163956229932,0.0146607657168,-0.00374774550281
1580310897941576493,-0.00163956229932,0.0134390352404,-0.00374774550281
1580310897941576493,-0.00163956229932,-0.00855211333477,-0.00374774550281
1580310897941576493,-0.00163956229932,-0.00366519142919,-0.00374774550281
1580310897941576493,0.000468446371235,-0.00366519142919,-0.00374774550281
1580310897941576493,0.000468446371235,-0.0183259571459,-0.00374774550281
1580310897941576493,0.000468446371235,-0.00733038285838,-0.00374774550281
1580310897941576493,0.000468446371235,-0.00733038285838,-0.0049188614309
1580310897941576493,0.000468446371235,-0.00733038285838,0.0
1580310897941576493,0.000468446371235,-0.00733038285838,0.00140533911371
1580310897941576493,0.000468446371235,-0.00733038285838,0.0
1580310897951672299,0.00257662957472,-0.00733038285838,0.0
1580310897951672299,-0.000234223185618,-0.00733038285838,0.0
1580310897951672299,-0.000234223185618,-0.00733038285838,0.000702669556853
1580310897951672299,-0.000234223185618,-0.00733038285838,0.00210818320348
1580310897951672299,-0.000234223185618,-0.00733038285838,-0.000702669556853
1580310897951672299,-0.000234223185618,-0.00610865238198,-0.000702669556853
1580310897951672299,-0.000234223185618,0.00610865238198,-0.000702669556853
1580310897951672299,-0.000234223185618,0.0146607657168,-0.000702669556853
1580310897961734308,0.00163956229932,0.0146607657168,-0.000702669556853
1580310897961734308,0.00281085276034,0.0146607657168,-0.000702669556853
1580310897961734308,0.00585575417337,0.0146607657168,-0.000702669556853
1580310897961734308,0.00585575417337,0.0146607657168,-0.00445041505966
1580310897961734308,0.00585575417337,0.0146607657168,0.0
1580310897961734308,0.00585575417337,-0.00977384381117,0.0
1580310897961734308,0.00585575417337,-0.00733038285838,0.0
1580310897971790038,0.00655859826314,-0.00733038285838,0.0
1580310897971790038,0.00304507594595,-0.00733038285838,0.0
1580310897971790038,0.00304507594595,-0.00733038285838,0.00210818320348
1580310897971790038,0.00304507594595,-0.00733038285838,-0.000936892742471
1580310897971790038,0.00304507594595,-0.0171042266695,-0.000936892742471
1580310897971790038,0.00304507594595,-0.0256563400043,-0.000936892742471
1580310897971790038,-0.000234223185618,-0.0256563400043,-0.000936892742471
1580310897971790038,0.0023424063891,-0.0256563400043,-0.000936892742471
1580310897981850164,0.00117111592809,-0.0256563400043,-0.000936892742471
1580310897991934597,0.00117111592809,-0.0256563400043,-0.00187378548494
1580310897991934597,0.00117111592809,-0.0256563400043,-0.00374774550281
1580310897991934597,0.00117111592809,-0.0256563400043,-0.00304507594595
1580310897991934597,0.00117111592809,-0.0256563400043,0.000234223185618
1580310897991934597,0.00117111592809,-0.012217304764,0.000234223185618
1580310897991934597,0.00117111592809,0.00855211333477,0.000234223185618
1580310897991934597,0.00117111592809,-0.00855211333477,0.000234223185618
1580310897991934597,0.00117111592809,0.00977384381117,0.000234223185618
1580310897991934597,0.00163956229932,0.00977384381117,0.000234223185618
1580310897991934597,0.0,0.00977384381117,0.000234223185618
1580310897991934597,-0.00281085276034,0.00977384381117,0.000234223185618
1580310897991934597,-0.00281085276034,0.00977384381117,0.00421619187404
1580310897991934597,-0.00281085276034,0.00977384381117,0.000936892742471
1580310898002112247,-0.00281085276034,0.00244346095279,0.000936892742471
1580310898002112247,-0.00281085276034,-0.00977384381117,0.000936892742471
1580310898002112247,-0.00281085276034,-0.00488692190558,0.000936892742471
1580310898002112247,-0.000702669556853,-0.00488692190558,0.000936892742471
1580310898002112247,0.0,-0.00488692190558,0.000936892742471
1580310898002112247,0.0,-0.00488692190558,-0.00140533911371
1580310898002112247,0.0,-0.00488692190558,0.00140533911371
1580310898002112247,0.0,-0.00488692190558,0.00117111592809
1580310898002112247,0.0,-0.00244346095279,0.00117111592809
1580310898002112247,0.0,-0.00366519142919,0.00117111592809
1580310898012171701,0.00445041505966,-0.00366519142919,0.00117111592809
1580310898012171701,0.00117111592809,-0.00366519142919,0.00117111592809
1580310898012171701,0.00117111592809,-0.00366519142919,0.0023424063891
1580310898012171701,0.00117111592809,-0.00366519142919,0.00374774550281
1580310898012171701,0.00117111592809,-0.00366519142919,0.00374774550281
1580310898012171701,0.00117111592809,0.0012217304764,0.00374774550281
1580310898012171701,0.00117111592809,0.0012217304764,0.0023424063891
1580310898022242971,0.00117111592809,0.0012217304764,0.000936892742471
1580310898022242971,0.00117111592809,0.0012217304764,0.0
1580310898032374132,0.00117111592809,0.0012217304764,0.000468446371235
1580310898032374132,-0.0023424063891,0.0012217304764,0.000468446371235
1580310898032374132,-0.000234223185618,0.0012217304764,0.000468446371235
1580310898032374132,0.00468463824528,0.0012217304764,0.000468446371235
1580310898032374132,0.00210818320348,0.0012217304764,0.000468446371235
1580310898032374132,0.00210818320348,0.0012217304764,0.000936892742471
1580310898032374132,0.00210818320348,0.0012217304764,0.000234223185618
1580310898032374132,0.00210818320348,-0.0134390352404,0.000234223185618
1580310898032374132,0.00210818320348,0.00610865238198,0.000234223185618
1580310898032374132,0.00210818320348,0.0158824961931,0.000234223185618
1580310898032374132,0.00210818320348,0.0207694180987,0.000234223185618
1580310898042447937,0.0,0.0207694180987,0.000234223185618
1580310898042447937,0.0,0.0207694180987,0.000234223185618
1580310898042447937,0.0,0.0207694180987,-0.000234223185618
1580310898042447937,0.0,0.00855211333477,-0.000234223185618
1580310898042447937,0.0,-0.0109955742876,-0.000234223185618
1580310898042447937,0.0,-0.00244346095279,-0.000234223185618
1580310898042447937,0.00468463824528,-0.00244346095279,-0.000234223185618
1580310898042447937,0.00538730780213,-0.00244346095279,-0.000234223185618
1580310898042447937,0.0049188614309,-0.00244346095279,-0.000234223185618
1580310898052707054,0.0049188614309,-0.00244346095279,0.00421619187404
1580310898052707054,0.0049188614309,-0.00244346095279,0.00468463824528
1580310898052707054,0.0049188614309,-0.00244346095279,0.00117111592809
1580310898052707054,0.0049188614309,0.00366519142919,0.00117111592809
1580310898052707054,0.0049188614309,0.00244346095279,0.00117111592809
1580310898062791680,0.000468446371235,0.00244346095279,0.00117111592809
1580310898062791680,0.00187378548494,0.00244346095279,0.00117111592809
1580310898062791680,0.00281085276034,0.00244346095279,0.00117111592809
1580310898062791680,0.00281085276034,0.00244346095279,-0.00304507594595
1580310898062791680,0.00281085276034,0.00244346095279,-0.00117111592809
1580310898062791680,0.00281085276034,0.0109955742876,-0.00117111592809
1580310898062791680,0.00281085276034,0.0,-0.00117111592809
1580310898062791680,0.00281085276034,-0.00733038285838,-0.00117111592809
1580310898072848062,0.00281085276034,-0.00733038285838,0.00163956229932
1580310898072848062,0.00281085276034,-0.00733038285838,0.0
1580310898072848062,0.00281085276034,-0.00733038285838,-0.00327929913157
1580310898072848062,0.00281085276034,-0.00610865238198,-0.00327929913157
1580310898072848062,0.00281085276034,0.00366519142919,-0.00327929913157
1580310898082909372,0.0023424063891,0.00366519142919,-0.00327929913157
1580310898082909372,0.00117111592809,0.00366519142919,-0.00327929913157
1580310898082909372,0.0023424063891,0.00366519142919,-0.00327929913157
1580310898082909372,-0.00281085276034,0.00366519142919,-0.00327929913157
1580310898082909372,-0.00281085276034,0.00366519142919,0.00468463824528
1580310898082909372,-0.00281085276034,0.00366519142919,0.00468463824528
1580310898082909372,-0.00281085276034,0.0012217304764,0.00468463824528
1580310898082909372,-0.00281085276034,0.00244346095279,0.00468463824528
1580310898082909372,-0.000468446371235,0.00244346095279,0.00468463824528
1580310898082909372,-0.00117111592809,0.00244346095279,0.00468463824528
1580310898092970764,-0.00117111592809,0.00244346095279,0.00398196868843
1580310898092970764,-0.00117111592809,0.00244346095279,0.00562153098775
1580310898092970764,0.000468446371235,0.00244346095279,0.00562153098775
1580310898092970764,0.000936892742471,0.00244346095279,0.00562153098775
1580310898092970764,0.000936892742471,-0.0134390352404,0.00562153098775
1580310898092970764,0.000936892742471,0.0,0.00562153098775
1580310898092970764,0.000936892742471,0.00855211333477,0.00562153098775
1580310898092970764,0.000936892742471,0.012217304764,0.00562153098775
1580310898103028636,0.0,0.012217304764,0.00562153098775
1580310898103028636,0.0,0.012217304764,0.00562153098775
1580310898103028636,0.000468446371235,0.012217304764,0.00562153098775
1580310898103028636,0.000468446371235,0.0109955742876,0.00562153098775
1580310898103028636,0.000468446371235,0.00244346095279,0.00562153098775
1580310898113097487,0.000468446371235,0.00244346095279,0.00585575417337
1580310898113097487,0.000702669556853,0.00244346095279,0.00585575417337
1580310898113097487,0.000234223185618,0.00244346095279,0.00585575417337
1580310898113097487,0.000234223185618,0.00244346095279,0.00351352231719
1580310898113097487,0.000234223185618,0.00244346095279,0.000468446371235
1580310898113097487,0.000234223185618,0.00244346095279,-0.000468446371235
1580310898113097487,0.000234223185618,-0.00610865238198,-0.000468446371235
1580310898113097487,0.000234223185618,-0.012217304764,-0.000468446371235
1580310898113097487,0.000234223185618,-0.012217304764,-0.000468446371235
1580310898113097487,0.000234223185618,-0.012217304764,0.000702669556853
1580310898113097487,0.000234223185618,-0.012217304764,0.00210818320348
1580310898113097487,0.000234223185618,-0.012217304764,-0.00163956229932
1580310898123129565,0.000234223185618,0.00733038285838,-0.00163956229932
1580310898123129565,0.000234223185618,0.00855211333477,-0.00163956229932
1580310898123129565,0.000234223185618,0.00855211333477,-0.00538730780213
1580310898123129565,0.0,0.00855211333477,-0.00538730780213
1580310898123129565,0.0,0.00855211333477,-0.00398196868843
1580310898123129565,0.00187378548494,0.00855211333477,-0.00398196868843
1580310898123129565,0.00187378548494,0.00855211333477,-0.00398196868843
1580310898123129565,0.00187378548494,0.00855211333477,-0.00140533911371
1580310898133189273,0.00187378548494,0.00855211333477,-0.00187378548494
1580310898133189273,0.000702669556853,0.00855211333477,-0.00187378548494
1580310898133189273,0.000702669556853,-0.0109955742876,-0.00187378548494
1580310898133189273,0.000702669556853,-0.00855211333477,-0.00187378548494
1580310898133189273,0.000702669556853,0.0109955742876,-0.00187378548494
1580310898133189273,0.000702669556853,-0.012217304764,-0.00187378548494
1580310898143251834,0.000702669556853,-0.012217304764,-0.00257662957472
1580310898143251834,0.000468446371235,-0.012217304764,-0.00257662957472
1580310898143251834,0.00679282144876,-0.012217304764,-0.00257662957472
1580310898143251834,0.00679282144876,-0.0280998009571,-0.00257662957472
1580310898143251834,0.00679282144876,0.0,-0.00257662957472
1580310898153312537,0.00679282144876,0.0,-0.000702669556853
1580310898153312537,0.00679282144876,0.0,0.00163956229932
1580310898153312537,0.00679282144876,0.0,0.000468446371235
1580310898153312537,0.00562153098775,0.0,0.000468446371235
1580310898153312537,0.00468463824528,0.0,0.000468446371235
1580310898153312537,0.00468463824528,0.0134390352404,0.000468446371235
1580310898153312537,0.00468463824528,0.00855211333477,0.000468446371235
1580310898153312537,0.00468463824528,-0.00733038285838,0.000468446371235
1580310898163408431,0.00468463824528,-0.00733038285838,0.00163956229932
1580310898163408431,0.00468463824528,-0.00733038285838,0.00210818320348
1580310898163408431,0.00468463824528,0.00244346095279,0.00210818320348
1580310898163408431,0.00468463824528,0.0171042266695,0.00210818320348
1580310898163408431,-0.000702669556853,0.0171042266695,0.00210818320348
1580310898173469674,0.00327929913157,0.0171042266695,0.00210818320348
1580310898173469674,0.00281085276034,0.0171042266695,0.00210818320348
1580310898173469674,0.00468463824528,0.0171042266695,0.00210818320348
1580310898173469674,0.00468463824528,0.0171042266695,0.000234223185618
1580310898173469674,0.00468463824528,0.0171042266695,-0.00257662957472
1580310898173469674,0.00468463824528,0.0171042266695,-0.000234223185618
1580310898173469674,0.00468463824528,0.0,-0.000234223185618
1580310898173469674,0.00468463824528,0.00610865238198,-0.000234223185618
1580310898173469674,0.00819816056247,0.00610865238198,-0.000234223185618
1580310898173469674,0.00515308461651,0.00610865238198,-0.000234223185618
1580310898173469674,-0.000468446371235,0.00610865238198,-0.000234223185618
1580310898173469674,-0.000468446371235,0.00610865238198,0.00163956229932
1580310898173469674,-0.000468446371235,0.00610865238198,0.00210818320348
1580310898183570710,-0.0023424063891,0.00610865238198,0.00210818320348
1580310898183570710,-0.0023424063891,0.00610865238198,0.00374774550281
1580310898183570710,-0.0023424063891,0.00610865238198,0.0
1580310898183570710,0.00421619187404,0.00610865238198,0.0
1580310898183570710,0.0049188614309,0.00610865238198,0.0
1580310898183570710,0.0049188614309,-0.00610865238198,0.0
1580310898183570710,0.0049188614309,0.0,0.0
1580310898183570710,0.0049188614309,0.00488692190558,0.0
1580310898193957536,0.0049188614309,0.00366519142919,0.0
1580310898193957536,0.00304507594595,0.00366519142919,0.0
1580310898193957536,0.00304507594595,-0.00488692190558,0.0
1580310898193957536,0.00304507594595,0.0,0.0
1580310898193957536,0.00445041505966,0.0,0.0
1580310898193957536,0.0023424063891,0.0,0.0
1580310898204030373,0.0023424063891,-0.00366519142919,0.0
1580310898204030373,0.0023424063891,0.0207694180987,0.0
1580310898204030373,0.0023424063891,0.0207694180987,-0.00351352231719
1580310898204030373,0.0023424063891,0.0207694180987,-0.000234223185618
1580310898204030373,0.0023424063891,0.0207694180987,0.00163956229932
1580310898204030373,0.0023424063891,0.0207694180987,0.00163956229932
1580310898204030373,0.00257662957472,0.0207694180987,0.00163956229932
1580310898204030373,0.00257662957472,0.00366519142919,0.00163956229932
1580310898204030373,0.00257662957472,-0.012217304764,0.00163956229932
1580310898204030373,0.00257662957472,-0.012217304764,0.00515308461651
1580310898214082798,0.00257662957472,-0.012217304764,0.00445041505966
1580310898214082798,0.00257662957472,-0.012217304764,0.0049188614309
1580310898214082798,0.00304507594595,-0.012217304764,0.0049188614309
1580310898214082798,0.00163956229932,-0.012217304764,0.0049188614309
1580310898214082798,0.00163956229932,-0.012217304764,0.0
1580310898214082798,0.000234223185618,-0.012217304764,0.0
1580310898214082798,0.000702669556853,-0.012217304764,0.0
1580310898224143731,0.000702669556853,-0.012217304764,0.00445041505966
1580310898224143731,0.000702669556853,-0.012217304764,0.00257662957472
1580310898224143731,0.000702669556853,-0.012217304764,0.00187378548494
1580310898224143731,0.000702669556853,-0.0109955742876,0.00187378548494
1580310898224143731,0.000702669556853,0.00977384381117,0.00187378548494
1580310898224143731,0.000702669556853,-0.00855211333477,0.00187378548494
1580310898224143731,0.000702669556853,-0.0134390352404,0.00187378548494
1580310898234439717,0.000702669556853,-0.0134390352404,0.00163956229932
1580310898234439717,0.000702669556853,-0.0134390352404,0.000702669556853
1580310898234439717,0.000702669556853,-0.00977384381117,0.000702669556853
1580310898234439717,0.000702669556853,0.0,0.000702669556853
1580310898244507348,0.000702669556853,0.0,0.000702669556853
1580310898244507348,0.00210818320348,0.0,0.000702669556853
1580310898244507348,0.00374774550281,0.0,0.000702669556853
1580310898244507348,0.00398196868843,0.0,0.000702669556853
1580310898244507348,0.00304507594595,0.0,0.000702669556853
1580310898244507348,0.00304507594595,0.0109955742876,0.000702669556853
1580310898244507348,0.00304507594595,0.00733038285838,0.000702669556853
1580310898254669508,-0.00257662957472,0.00733038285838,0.000702669556853
1580310898254669508,-0.0023424063891,0.00733038285838,0.000702669556853
1580310898254669508,0.00163956229932,0.00733038285838,0.000702669556853
1580310898254669508,0.00163956229932,0.00733038285838,0.000468446371235
1580310898254669508,0.00163956229932,0.00733038285838,0.00257662957472
1580310898254669508,0.00163956229932,0.00733038285838,0.00140533911371
1580310898254669508,0.00163956229932,0.00733038285838,-0.00210818320348
1580310898264731539,0.00163956229932,-0.00610865238198,-0.00210818320348
1580310898264731539,0.00163956229932,0.0012217304764,-0.00210818320348
1580310898264731539,0.00163956229932,-0.00244346095279,-0.00210818320348
1580310898264731539,-0.00117111592809,-0.00244346095279,-0.00210818320348
1580310898264731539,0.0,-0.00244346095279,-0.00210818320348
1580310898264731539,0.00281085276034,-0.00244346095279,-0.00210818320348
1580310898274819360,0.00281085276034,-0.00244346095279,0.0
1580310898274819360,0.00281085276034,-0.00244346095279,-0.000468446371235
1580310898274819360,0.00281085276034,-0.00244346095279,-0.000936892742471
1580310898274819360,0.00281085276034,0.0109955742876,-0.000936892742471
1580310898274819360,0.00281085276034,0.00488692190558,-0.000936892742471
1580310898274819360,0.00281085276034,-0.0146607657168,-0.000936892742471
1580310898274819360,0.00281085276034,0.0,-0.000936892742471
1580310898274819360,0.00281085276034,0.00855211333477,-0.000936892742471
1580310898274819360,0.00421619187404,0.00855211333477,-0.000936892742471
1580310898274819360,0.00304507594595,0.00855211333477,-0.000936892742471
1580310898274819360,0.00632437507753,0.00855211333477,-0.000936892742471
1580310898274819360,0.00281085276034,0.00855211333477,-0.000936892742471
1580310898274819360,0.00140533911371,0.00855211333477,-0.000936892742471
1580310898286674250,0.00140533911371,0.00855211333477,0.00515308461651
1580310898286674250,0.00140533911371,0.00855211333477,0.00351352231719
1580310898286674250,0.00140533911371,0.00855211333477,-0.000468446371235
1580310898286674250,0.00140533911371,0.00855211333477,-0.000468446371235
1580310898286674250,0.00140533911371,-0.00855211333477,-0.000468446371235
1580310898296736255,0.00140533911371,-0.00366519142919,-0.000468446371235
1580310898296736255,0.0,-0.00366519142919,-0.000468446371235
1580310898296736255,-0.00210818320348,-0.00366519142919,-0.000468446371235
1580310898296736255,0.00140533911371,-0.00366519142919,-0.000468446371235
1580310898296736255,0.00140533911371,-0.00366519142919,0.00398196868843
1580310898296736255,0.00140533911371,-0.00366519142919,0.00187378548494
1580310898306796558,0.00140533911371,-0.00366519142919,0.0
1580310898306796558,0.00140533911371,-0.00733038285838,0.0
1580310898306796558,0.00140533911371,-0.00610865238198,0.0
1580310898306796558,0.00140533911371,0.00244346095279,0.0
1580310898306796558,0.00257662957472,0.00244346095279,0.0
1580310898306796558,0.00140533911371,0.00244346095279,0.0
1580310898306796558,0.00562153098775,0.00244346095279,0.0
1580310898306796558,0.00562153098775,0.00244346095279,0.000468446371235
1580310898316886711,0.00562153098775,0.00244346095279,-0.000234223185618
1580310898316886711,0.00562153098775,0.00244346095279,-0.000936892742471
1580310898316886711,0.00562153098775,0.00244346095279,0.00187378548494
1580310898316886711,0.00562153098775,0.0109955742876,0.00187378548494
1580310898316886711,0.00562153098775,0.00855211333477,0.00187378548494
1580310898316886711,0.00562153098775,0.0012217304764,0.00187378548494
1580310898316886711,0.00562153098775,0.0012217304764,0.0
1580310898316886711,0.00562153098775,0.0012217304764,0.000936892742471
1580310898316886711,0.00562153098775,0.0012217304764,-0.000702669556853
1580310898326955151,0.00281085276034,0.0012217304764,-0.000702669556853
1580310898326955151,0.00210818320348,0.0012217304764,-0.000702669556853
1580310898326955151,0.0,0.0012217304764,-0.000702669556853
1580310898326955151,-0.000234223185618,0.0012217304764,-0.000702669556853
1580310898326955151,-0.000234223185618,0.0012217304764,-0.00327929913157
1580310898326955151,-0.000234223185618,0.0012217304764,-0.00304507594595
1580310898326955151,-0.000234223185618,0.0134390352404,-0.00304507594595
1580310898326955151,-0.000234223185618,0.00855211333477,-0.00304507594595
1580310898337028290,-0.000234223185618,0.0012217304764,-0.00304507594595
1580310898337028290,-0.000234223185618,-0.00366519142919,-0.00304507594595
1580310898337028290,0.00374774550281,-0.00366519142919,-0.00304507594595
1580310898337028290,0.000468446371235,-0.00366519142919,-0.00304507594595
1580310898337028290,0.0,-0.00366519142919,-0.00304507594595
1580310898337028290,0.0,-0.00366519142919,0.00140533911371
1580310898337028290,0.0,-0.00366519142919,-0.00140533911371
1580310898337028290,0.0,-0.00366519142919,-0.00140533911371
1580310898337028290,0.0,-0.00366519142919,-0.00140533911371
1580310898337028290,0.0,-0.00610865238198,-0.00140533911371
1580310898337028290,0.00140533911371,-0.00610865238198,-0.00140533911371
1580310898337028290,0.0023424063891,-0.00610865238198,-0.00140533911371
1580310898347082191,0.00304507594595,-0.00610865238198,-0.00140533911371
1580310898347082191,0.00187378548494,-0.00610865238198,-0.00140533911371
1580310898347082191,0.00187378548494,-0.00977384381117,-0.00140533911371
1580310898347082191,0.00187378548494,0.00366519142919,-0.00140533911371
1580310898357139772,0.00187378548494,0.00366519142919,-0.00210818320348
1580310898357139772,0.00187378548494,0.00366519142919,-0.0023424063891
1580310898357139772,0.00187378548494,0.00366519142919,-0.00187378548494
1580310898357139772,0.00187378548494,0.00366519142919,-0.000936892742471
1580310898357139772,0.00187378548494,0.00733038285838,-0.000936892742471
1580310898357139772,0.00187378548494,-0.0134390352404,-0.000936892742471
1580310898357139772,0.00187378548494,0.0012217304764,-0.000936892742471
1580310898367218289,0.00187378548494,0.0012217304764,0.000468446371235
1580310898367218289,0.00187378548494,0.0012217304764,0.00117111592809
1580310898367218289,0.00187378548494,0.0012217304764,0.00210818320348
1580310898367218289,-0.00187378548494,0.0012217304764,0.00210818320348
1580310898367218289,-0.000936892742471,0.0012217304764,0.00210818320348
1580310898367218289,-0.000234223185618,0.0012217304764,0.00210818320348
1580310898367218289,0.00210818320348,0.0012217304764,0.00210818320348
1580310898367218289,0.00210818320348,-0.00733038285838,0.00210818320348
1580310898367218289,0.00210818320348,0.0,0.00210818320348
1580310898377227547,0.00210818320348,0.0,0.000234223185618
1580310898377227547,0.00210818320348,0.0,-0.0023424063891
1580310898377227547,0.00749549100561,0.0,-0.0023424063891
1580310898377227547,0.00351352231719,0.0,-0.0023424063891
1580310898377227547,-0.000468446371235,0.0,-0.0023424063891
1580310898377227547,-0.000468446371235,0.0,-0.0023424063891
1580310898377227547,-0.000468446371235,0.00366519142919,-0.0023424063891
1580310898377227547,-0.000468446371235,0.00366519142919,-0.00515308461651
1580310898377227547,-0.000468446371235,0.00366519142919,-0.00538730780213
1580310898377227547,0.00210818320348,0.00366519142919,-0.00538730780213
1580310898387285355,0.00327929913157,0.00366519142919,-0.00538730780213
1580310898397376077,-0.000234223185618,0.00366519142919,-0.00538730780213
1580310898397376077,0.0,0.00366519142919,-0.00538730780213
1580310898397376077,0.0,0.0,-0.00538730780213
1580310898397376077,0.0,-0.0232128790515,-0.00538730780213
1580310898397376077,0.0,-0.0134390352404,-0.00538730780213
1580310898397376077,0.0,-0.00977384381117,-0.00538730780213
1580310898397376077,0.0,-0.00977384381117,0.00117111592809
1580310898397376077,-0.00117111592809,-0.00977384381117,0.00117111592809
1580310898397376077,-0.00117111592809,-0.00977384381117,-0.00187378548494
1580310898397376077,-0.00117111592809,-0.00977384381117,-0.00421619187404
1580310898407461294,-0.00117111592809,-0.00977384381117,-0.00351352231719
1580310898407461294,-0.000468446371235,-0.00977384381117,-0.00351352231719
1580310898407461294,-0.000468446371235,-0.00977384381117,-0.00351352231719
1580310898407461294,-0.000468446371235,0.012217304764,-0.00351352231719
1580310898407461294,-0.000468446371235,0.00488692190558,-0.00351352231719
1580310898407461294,-0.000468446371235,0.00488692190558,0.000936892742471
1580310898407461294,-0.000468446371235,0.00488692190558,0.00163956229932
1580310898407461294,-0.000468446371235,0.00488692190558,0.000468446371235
1580310898407461294,-0.000468446371235,-0.0195476876223,0.000468446371235
1580310898407461294,-0.000468446371235,0.00488692190558,0.000468446371235
1580310898417526947,-0.000468446371235,0.00488692190558,-0.00210818320348
1580310898417526947,-0.000468446371235,0.00488692190558,-0.00117111592809
1580310898417526947,0.000468446371235,0.00488692190558,-0.00117111592809
1580310898417526947,0.00445041505966,0.00488692190558,-0.00117111592809
1580310898417526947,0.00304507594595,0.00488692190558,-0.00117111592809
1580310898417526947,-0.0023424063891,0.00488692190558,-0.00117111592809
1580310898417526947,-0.0023424063891,0.0134390352404,-0.00117111592809
1580310898417526947,-0.0023424063891,0.0146607657168,-0.00117111592809
1580310898427585756,-0.0023424063891,0.0146607657168,-0.00163956229932
1580310898427585756,-0.000936892742471,0.0146607657168,-0.00163956229932
1580310898427585756,0.000234223185618,0.0146607657168,-0.00163956229932
1580310898427585756,0.000468446371235,0.0146607657168,-0.00163956229932
1580310898427585756,0.000468446371235,0.0146607657168,0.00421619187404
1580310898427585756,0.000468446371235,0.0146607657168,0.00421619187404
1580310898427585756,0.000468446371235,0.0146607657168,-0.00327929913157
1580310898427585756,0.00187378548494,0.0146607657168,-0.00327929913157
1580310898427585756,0.00562153098775,0.0146607657168,-0.00327929913157
1580310898437643103,0.00562153098775,0.0146607657168,-0.00327929913157
1580310898437643103,0.00562153098775,-0.00488692190558,-0.00327929913157
1580310898437643103,0.00562153098775,-0.00977384381117,-0.00327929913157
1580310898437643103,0.00562153098775,0.00855211333477,-0.00327929913157
1580310898437643103,0.00562153098775,0.00488692190558,-0.00327929913157
1580310898437643103,0.00421619187404,0.00488692190558,-0.00327929913157
1580310898447703144,0.00421619187404,0.00488692190558,0.00140533911371
1580310898447703144,0.00421619187404,0.00488692190558,0.00163956229932
1580310898447703144,0.00421619187404,-0.0134390352404,0.00163956229932
1580310898447703144,0.00421619187404,-0.0171042266695,0.00163956229932
1580310898447703144,0.0023424063891,-0.0171042266695,0.00163956229932
1580310898447703144,0.00398196868843,-0.0171042266695,0.00163956229932
1580310898447703144,0.00398196868843,-0.0171042266695,0.000702669556853
1580310898457776528,0.00398196868843,-0.00977384381117,0.000702669556853
1580310898457776528,0.00398196868843,-0.00366519142919,0.000702669556853
1580310898457776528,0.00398196868843,0.0134390352404,0.000702669556853
1580310898457776528,0.00562153098775,0.0134390352404,0.000702669556853
1580310898457776528,0.00163956229932,0.0134390352404,0.000702669556853
1580310898457776528,0.00374774550281,0.0134390352404,0.000702669556853
1580310898457776528,0.00374774550281,0.0134390352404,-0.00140533911371
1580310898457776528,0.00374774550281,0.0134390352404,-0.00351352231719
1580310898457776528,0.00374774550281,0.0134390352404,-0.00562153098775
1580310898467833135,0.00374774550281,0.00733038285838,-0.00562153098775
1580310898467833135,0.00374774550281,0.0,-0.00562153098775
1580310898467833135,0.00374774550281,-0.0158824961931,-0.00562153098775
1580310898467833135,0.00398196868843,-0.0158824961931,-0.00562153098775
1580310898467833135,0.00163956229932,-0.0158824961931,-0.00562153098775
1580310898467833135,0.00163956229932,-0.0158824961931,-0.00210818320348
1580310898467833135,0.00163956229932,-0.0158824961931,0.00187378548494
1580310898477895798,0.00257662957472,-0.0158824961931,0.00187378548494
1580310898477895798,0.00117111592809,-0.0158824961931,0.00187378548494
1580310898477895798,-0.00210818320348,-0.0158824961931,0.00187378548494
1580310898477895798,-0.00210818320348,-0.0158824961931,0.0023424063891
1580310898477895798,-0.00210818320348,-0.0158824961931,0.00351352231719
1580310898477895798,-0.00210818320348,-0.0158824961931,0.000468446371235
1580310898487966407,-0.00210818320348,-0.0158824961931,0.000468446371235
1580310898487966407,-0.00210818320348,-0.0012217304764,0.000468446371235
1580310898487966407,-0.00210818320348,-0.00610865238198,0.000468446371235
1580310898487966407,-0.00210818320348,0.0012217304764,0.000468446371235
1580310898487966407,0.0023424063891,0.0012217304764,0.000468446371235
1580310898487966407,0.00304507594595,0.0012217304764,0.000468446371235
1580310898487966407,0.00304507594595,0.0012217304764,0.00117111592809
1580310898487966407,0.00304507594595,0.0012217304764,0.0023424063891
1580310898498023267,0.00304507594595,-0.00855211333477,0.0023424063891
1580310898498023267,0.00304507594595,0.00855211333477,0.0023424063891
1580310898498023267,0.00304507594595,0.00488692190558,0.0023424063891
1580310898498023267,0.00445041505966,0.00488692190558,0.0023424063891
1580310898498023267,0.00445041505966,0.00488692190558,0.0023424063891
1580310898498023267,0.0,0.00488692190558,0.0023424063891
1580310898498023267,0.0,0.00488692190558,-0.000936892742471
1580310898508060721,0.0,0.00488692190558,-0.00140533911371
1580310898508060721,0.0,0.00488692190558,-0.00187378548494
1580310898508060721,0.0,0.00855211333477,-0.00187378548494
1580310898508060721,0.0,-0.00977384381117,-0.00187378548494
1580310898508060721,-0.000468446371235,-0.00977384381117,-0.00187378548494
1580310898508060721,0.0,-0.00977384381117,-0.00187378548494
1580310898518117360,0.0,-0.00977384381117,-0.00163956229932
1580310898518117360,0.0,-0.00977384381117,-0.00163956229932
1580310898518117360,0.0,-0.00977384381117,0.00327929913157
1580310898518117360,0.0,-0.00855211333477,0.00327929913157
1580310898518117360,0.0,0.00366519142919,0.00327929913157
1580310898518117360,0.0,-0.012217304764,0.00327929913157
1580310898518117360,-0.000234223185618,-0.012217304764,0.00327929913157
1580310898518117360,-0.000936892742471,-0.012217304764,0.00327929913157
1580310898518117360,-0.00210818320348,-0.012217304764,0.00327929913157
1580310898528174859,-0.00210818320348,-0.0134390352404,0.00327929913157
1580310898528174859,-0.00210818320348,0.0012217304764,0.00327929913157
1580310898528174859,-0.00210818320348,-0.0183259571459,0.00327929913157
1580310898538236244,0.000936892742471,-0.0183259571459,0.00327929913157
1580310898538236244,0.0023424063891,-0.0183259571459,0.00327929913157
1580310898538236244,0.0023424063891,-0.0183259571459,0.00327929913157
1580310898538236244,0.0023424063891,-0.0183259571459,-0.00140533911371
1580310898538236244,0.0023424063891,-0.0183259571459,-0.00210818320348
1580310898538236244,0.0023424063891,-0.0183259571459,-0.00468463824528
1580310898538236244,0.0023424063891,-0.0183259571459,0.000702669556853
1580310898549520258,0.0023424063891,-0.00855211333477,0.000702669556853
1580310898549520258,0.0023424063891,0.00244346095279,0.000702669556853
1580310898549520258,0.0023424063891,0.0,0.000702669556853
1580310898549520258,0.0023424063891,-0.0109955742876,0.000702669556853
1580310898549520258,0.0023424063891,-0.0109955742876,0.00398196868843
1580310898549520258,0.0023424063891,-0.0109955742876,0.00304507594595
1580310898549520258,0.0023424063891,-0.0109955742876,0.00421619187404
1580310898549520258,0.0023424063891,-0.0109955742876,0.00398196868843
1580310898549520258,0.0023424063891,-0.0109955742876,0.0023424063891
1580310898549520258,-0.000468446371235,-0.0109955742876,0.0023424063891
1580310898549520258,0.00187378548494,-0.0109955742876,0.0023424063891
1580310898549520258,0.00398196868843,-0.0109955742876,0.0023424063891
1580310898549520258,0.00281085276034,-0.0109955742876,0.0023424063891
1580310898559578068,0.00281085276034,-0.00244346095279,0.0023424063891
1580310898559578068,0.00281085276034,0.0012217304764,0.0023424063891
1580310898559578068,0.00281085276034,-0.0244346095279,0.0023424063891
1580310898559578068,0.00281085276034,-0.0244346095279,0.000936892742471
1580310898559578068,0.00281085276034,-0.0244346095279,0.00281085276034
1580310898559578068,0.00351352231719,-0.0244346095279,0.00281085276034
1580310898559578068,0.00327929913157,-0.0244346095279,0.00281085276034
1580310898559578068,0.0,-0.0244346095279,0.00281085276034
1580310898569660087,0.0,0.00855211333477,0.00281085276034
1580310898569660087,0.0,0.00244346095279,0.00281085276034
1580310898569660087,0.0,-0.00244346095279,0.00281085276034
1580310898569660087,0.0,-0.00244346095279,-0.00117111592809
1580310898569660087,0.0,-0.00244346095279,0.0
1580310898569660087,0.0,-0.00244346095279,0.0
1580310898569660087,0.000936892742471,-0.00244346095279,0.0
1580310898569660087,0.00421619187404,-0.00244346095279,0.0
1580310898579715486,0.00421619187404,0.00244346095279,0.0
1580310898579715486,0.00421619187404,0.00977384381117,0.0
1580310898579715486,0.00421619187404,0.00977384381117,-0.00538730780213
1580310898579715486,0.00421619187404,0.00977384381117,-0.00679282144876
1580310898579715486,0.000234223185618,0.00977384381117,-0.00679282144876
1580310898579715486,-0.00210818320348,0.00977384381117,-0.00679282144876
1580310898579715486,-0.000468446371235,0.00977384381117,-0.00679282144876
1580310898579715486,-0.000468446371235,-0.00244346095279,-0.00679282144876
1580310898579715486,-0.000468446371235,0.012217304764,-0.00679282144876
1580310898589752581,-0.000468446371235,0.012217304764,-0.00702704463438
1580310898589752581,-0.000468446371235,0.012217304764,-0.00163956229932
1580310898589752581,-0.00187378548494,0.012217304764,-0.00163956229932
1580310898589752581,-0.00163956229932,0.012217304764,-0.00163956229932
1580310898589752581,0.000702669556853,0.012217304764,-0.00163956229932
1580310898599807631,-0.00117111592809,0.012217304764,-0.00163956229932
1580310898599807631,0.0,0.012217304764,-0.00163956229932
1580310898599807631,0.0,0.00733038285838,-0.00163956229932
1580310898599807631,0.0,-0.0195476876223,-0.00163956229932
1580310898599807631,0.0,-0.0109955742876,-0.00163956229932
1580310898599807631,0.0,0.00855211333477,-0.00163956229932
1580310898599807631,0.0,0.00855211333477,0.000468446371235
1580310898599807631,0.0,0.00855211333477,0.00304507594595
1580310898599807631,0.0,0.00855211333477,-0.00117111592809
1580310898609865856,0.0,0.00855211333477,-0.0023424063891
1580310898609865856,-0.000234223185618,0.00855211333477,-0.0023424063891
1580310898609865856,0.00281085276034,0.00855211333477,-0.0023424063891
1580310898609865856,0.00281085276034,0.00488692190558,-0.0023424063891
1580310898609865856,0.00281085276034,-0.0012217304764,-0.0023424063891
1580310898609865856,0.00281085276034,-0.00977384381117,-0.0023424063891
1580310898609865856,0.00281085276034,-0.00977384381117,-0.0023424063891
1580310898609865856,0.00281085276034,-0.00977384381117,0.00281085276034
1580310898609865856,0.00281085276034,-0.00977384381117,0.000234223185618
1580310898619919618,0.00281085276034,-0.0280998009571,0.000234223185618
1580310898619919618,0.00281085276034,-0.012217304764,0.000234223185618
1580310898619919618,0.00281085276034,-0.012217304764,0.00281085276034
1580310898619919618,0.00281085276034,-0.012217304764,0.00140533911371
1580310898619919618,0.00281085276034,-0.0012217304764,0.00140533911371
1580310898629976999,0.00281085276034,-0.0012217304764,0.00140533911371
1580310898629976999,0.000468446371235,-0.0012217304764,0.00140533911371
1580310898629976999,0.00257662957472,-0.0012217304764,0.00140533911371
1580310898629976999,0.00187378548494,-0.0012217304764,0.00140533911371
