%time,field.x,field.y,field.z
1580310897415948119,0.000703018622703,-0.00246073971239,0.000936892742471
1580310897415968932,0.00421846080207,0.0056246725804,0.0
1580310897415978567,0.0056246725804,0.00492147942477,0.00140533911371
1580310897416003807,0.00632769120311,-0.00105452793405,0.00163956229932
1580310897416648753,0.0056246725804,-0.00773390298144,0.00117111592809
1580310897417981371,0.00281224902374,-0.00386695149072,0.00351352231719
1580310897419580195,0.00527298873613,0.00667920051446,-0.000234223185618
1580310897420267598,0.0056246725804,0.0119521892506,-0.00187378548494
1580310897420305462,0.00386695149072,0.0,-0.00281085276034
1580310897420328421,0.000351509311352,-0.00808541229279,0.00163956229932
1580310897420612190,-0.00246073971239,-0.00281224902374,0.00304507594595
1580310897420633559,0.000703018622703,0.00632769120311,0.000936892742471
1580310897420642444,0.00351544217937,0.00738221913716,0.000468446371235
1580310897420650879,-0.00210923040104,-0.000351509311352,0.00281085276034
1580310897420674811,-0.00316375833509,-0.0105461520052,0.00468463824528
1580310897420690688,-0.000703018622703,-0.00456997011342,0.000936892742471
1580310897420708136,-0.00105452793405,0.00632769120311,-0.000234223185618
1580310897420895064,0.00140621177833,0.00913994022684,-0.00117111592809
1580310897421764658,0.00175772108968,-0.000351509311352,0.00163956229932
1580310897422369379,0.000351509311352,-0.00703070982581,0.000936892742471
1580310897422376057,-0.00105452793405,-0.0056246725804,0.000468446371235
1580310897422381611,0.0,0.00703070982581,0.00117111592809
1580310897422428740,0.00140621177833,0.0123038730949,0.00210818320348
1580310897422464815,0.00281224902374,0.00316375833509,0.00140533911371
1580310897422472206,0.00351544217937,-0.00632769120311,0.000936892742471
1580310897422511914,0.00210923040104,-0.00105452793405,0.00702704463438
1580310897422551286,0.00105452793405,0.00667920051446,0.00210818320348
1580310897422573467,0.00175772108968,0.00597618189175,-0.00117111592809
1580310897422587666,0.00210923040104,0.0,-0.000702669556853
1580310897422593738,-0.000703018622703,-0.00878843091549,-0.00327929913157
1580310897422609671,-0.000351509311352,-0.00210923040104,-0.000936892742471
1580310897422627324,0.00246073971239,0.00386695149072,0.000702669556853
1580310897422640552,0.00386695149072,0.00597618189175,0.0
1580310897422655522,0.00246073971239,-0.000703018622703,0.0
1580310897422677892,-0.000351509311352,-0.00632769120311,0.00210818320348
1580310897422684325,-0.00140621177833,-0.00527298873613,0.00515308461651
1580310897423480960,-0.00246073971239,0.0105461520052,0.0
1580310897424132607,0.00492147942477,0.0105461520052,-0.000936892742471
1580310897424344575,0.00140621177833,0.00316375833509,-0.0023424063891
1580310897424357940,-0.00140621177833,-0.0056246725804,0.0
1580310897424371453,0.000351509311352,0.0,-0.000234223185618
1580310897424378056,0.000351509311352,0.00492147942477,0.0
1580310897424389116,0.00386695149072,0.00738221913716,0.00210818320348
1580310897424401798,0.00316375833509,0.00281224902374,0.00304507594595
1580310897424409579,0.000703018622703,-0.00386695149072,0.00210818320348
1580310897424419134,0.0,0.00105452793405,0.00257662957472
1580310897424425712,0.00140621177833,0.00843692160414,0.00140533911371
1580310897424434122,0.00667920051446,0.00738221913716,-0.000468446371235
1580310897424452439,0.00456997011342,-0.00281224902374,-0.00445041505966
1580310897424459073,-0.00105452793405,-0.00843692160414,-0.0023424063891
1580310897425147089,-0.00316375833509,-0.00386695149072,0.00163956229932
1580310897425152261,0.0,0.00281224902374,0.00187378548494
1580310897425319165,0.00105452793405,0.00738221913716,-0.000468446371235
1580310897425333782,0.00105452793405,0.00105452793405,0.00257662957472
1580310897426141104,-0.000703018622703,-0.00281224902374,0.00421619187404
1580310897426427419,-0.00105452793405,-0.000703018622703,0.00374774550281
1580310897426438475,0.00175772108968,0.00246073971239,0.00304507594595
1580310897426732118,0.00386695149072,0.00878843091549,-0.00304507594595
1580310897427001930,0.00597618189175,0.00210923040104,-0.00351352231719
1580310897427018097,0.00140621177833,-0.00703070982581,-0.000234223185618
1580310897427024164,0.000703018622703,-0.00386695149072,0.00257662957472
1580310897427061664,0.00175772108968,0.0112491706279,0.00163956229932
1580310897427078964,-0.000351509311352,0.0116006799392,0.00257662957472
1580310897427087198,-0.000351509311352,0.000351509311352,0.00187378548494
1580310897427094726,-0.00140621177833,-0.00984295884955,0.00257662957472
1580310897427111413,-0.00140621177833,-0.00738221913716,0.00210818320348
1580310897427118288,0.0,0.00421846080207,0.00210818320348
1580310897427525047,0.00246073971239,0.00597618189175,-0.00163956229932
1580310897427531495,-0.000351509311352,-0.00105452793405,-0.00257662957472
1580310897427568040,-0.00246073971239,-0.00527298873613,-0.00257662957472
1580310897427579676,-0.00105452793405,-0.00105452793405,-0.00163956229932
1580310897427618746,0.00105452793405,0.00703070982581,-0.00398196868843
1580310897427669723,0.00527298873613,0.0123038730949,0.0023424063891
1580310897427997917,0.00492147942477,0.00492147942477,0.00117111592809
1580310897428008993,0.00140621177833,-0.00597618189175,-0.00140533911371
1580310897428018306,-0.00140621177833,-0.00386695149072,0.00210818320348
1580310897428029020,0.00140621177833,0.00703070982581,0.00398196868843
1580310897428055732,0.000351509311352,0.0112491706279,0.000936892742471
1580310897428062908,0.00281224902374,0.00246073971239,0.00187378548494
1580310897428067490,0.00175772108968,-0.00456997011342,0.00515308461651
1580310897428505904,-0.000351509311352,-0.00456997011342,0.0
1580310897428516187,0.00281224902374,0.0056246725804,-0.00327929913157
1580310897428524179,0.00421846080207,0.00878843091549,-0.0023424063891
1580310897428528378,0.00808541229279,0.000703018622703,-0.000234223185618
1580310897428533381,0.000703018622703,-0.00913994022684,0.00117111592809
1580310897428568091,-0.00105452793405,-0.00597618189175,0.00538730780213
1580310897428572913,0.0,0.00281224902374,0.00468463824528
1580310897428580024,0.00632769120311,0.00984295884955,0.0023424063891
1580310897428872823,0.00492147942477,0.00105452793405,-0.000234223185618
1580310897428876967,0.00386695149072,-0.00456997011342,-0.00140533911371
1580310897428887190,-0.000351509311352,-0.00632769120311,0.00117111592809
1580310897428908868,0.00246073971239,0.00632769120311,0.000702669556853
1580310897428918091,0.00632769120311,0.0112491706279,0.00163956229932
1580310897429320225,0.00140621177833,0.00421846080207,0.00398196868843
1580310897429369295,-0.00456997011342,-0.0101946426938,0.00351352231719
1580310897429456410,-0.00281224902374,-0.0056246725804,0.00421619187404
1580310897429711416,0.000351509311352,-0.000351509311352,-0.00140533911371
1580310897430186554,-0.000703018622703,0.00773390298144,-0.00117111592809
1580310897430496537,0.00105452793405,0.00140621177833,0.00327929913157
1580310897433977213,-0.00175772108968,-0.00773390298144,0.00538730780213
1580310897434274756,-0.00316375833509,-0.00667920051446,0.00163956229932
1580310897434358797,0.00175772108968,0.00140621177833,0.00538730780213
1580310897436884131,0.00246073971239,0.0105461520052,0.00538730780213
1580310897437296821,0.00175772108968,0.00456997011342,0.00187378548494
1580310897437347663,0.00281224902374,-0.00878843091549,-0.000234223185618
1580310897437626339,0.00421846080207,-0.00913994022684,-0.00140533911371
1580310897445895795,0.00246073971239,0.00597618189175,-0.000702669556853
1580310897445904220,0.00351544217937,0.0133584010289,-0.00210818320348
1580310897445913782,0.00492147942477,0.00527298873613,0.000468446371235
1580310897445927085,0.00105452793405,-0.00316375833509,-0.00163956229932
1580310897452559919,0.0,-0.00386695149072,0.0023424063891
1580310897452581496,-0.00246073971239,0.00175772108968,0.000234223185618
1580310897460486980,-0.000703018622703,0.0094914495382,0.00210818320348
1580310897460506749,0.00140621177833,0.00351544217937,0.00281085276034
1580310897468611538,-0.00140621177833,-0.0056246725804,-0.0023424063891
1580310897468623718,-0.00140621177833,-0.00492147942477,0.00187378548494
1580310897484121310,0.00351544217937,0.00281224902374,0.00210818320348
1580310897484128088,0.00421846080207,0.0105461520052,0.0023424063891
1580310897484194974,0.00105452793405,0.00246073971239,0.000702669556853
1580310897484210831,-0.000351509311352,-0.00738221913716,0.0049188614309
1580310897496089400,0.00281224902374,-0.0094914495382,0.00257662957472
1580310897496127080,0.00175772108968,0.00246073971239,0.000702669556853
1580310897503979532,0.00632769120311,0.00878843091549,-0.00163956229932
1580310897503993218,0.00492147942477,0.00175772108968,0.000234223185618
1580310897504048093,0.00175772108968,-0.00773390298144,0.000702669556853
1580310897512417581,-0.00105452793405,-0.00808541229279,0.000936892742471
1580310897512432555,0.00175772108968,0.00316375833509,0.00281085276034
1580310897520863849,0.00175772108968,0.0112491706279,-0.000234223185618
1580310897520872171,0.00175772108968,0.00386695149072,0.00281085276034
1580310897539507272,0.000351509311352,-0.00843692160414,0.0023424063891
1580310897539523396,-0.00175772108968,-0.0094914495382,0.00374774550281
1580310897539536730,0.00105452793405,0.00421846080207,-0.0023424063891
1580310897539576318,0.00527298873613,0.0123038730949,-0.00140533911371
1580310897550099763,0.00738221913716,0.00843692160414,-0.000234223185618
1580310897550111594,0.00456997011342,-0.00703070982581,0.00140533911371
1580310897550143668,-0.00351544217937,-0.00843692160414,-0.00210818320348
1580310897559255411,-0.0056246725804,0.000703018622703,0.0
1580310897559273114,-0.00140621177833,0.00878843091549,0.00374774550281
1580310897559317281,-0.00105452793405,0.000703018622703,0.00281085276034
1580310897567764403,0.0,-0.0056246725804,0.00140533911371
1580310897567793577,0.000703018622703,-0.00913994022684,0.00398196868843
1580310897576122582,0.0,-0.00456997011342,0.00515308461651
1580310897576136674,0.00421846080207,0.0056246725804,0.00445041505966
1580310897600650527,0.00105452793405,0.00386695149072,0.00351352231719
1580310897600664041,-0.00421846080207,-0.00632769120311,0.00304507594595
1580310897600672706,-0.00492147942477,-0.00808541229279,0.00608997735898
1580310897600681509,-0.000703018622703,0.000703018622703,0.00421619187404
1580310897615305372,0.00281224902374,0.00878843091549,0.0
1580310897615321890,0.00492147942477,0.00175772108968,-0.000234223185618
1580310897615356015,-0.00175772108968,-0.00808541229279,0.00468463824528
1580310897615371685,-0.00140621177833,-0.00843692160414,0.00421619187404
1580310897624953718,-0.00316375833509,-0.00281224902374,0.00304507594595
1580310897624975924,0.00210923040104,0.00492147942477,0.00257662957472
1580310897624984441,0.00316375833509,0.00246073971239,0.00327929913157
1580310897624997075,-0.000351509311352,-0.00421846080207,0.00585575417337
1580310897632019514,-0.00140621177833,-0.0094914495382,0.00304507594595
1580310897632029108,-0.00105452793405,0.00140621177833,0.000936892742471
1580310897640594619,0.000351509311352,0.00984295884955,0.000936892742471
1580310897640620783,0.00246073971239,0.00351544217937,0.00398196868843
1580310897657310337,0.000351509311352,-0.0056246725804,-0.00257662957472
1580310897657317876,0.00105452793405,-0.00913994022684,0.00163956229932
1580310897657322886,-0.00105452793405,-0.000351509311352,0.00632437507753
1580310897657326933,0.00246073971239,0.00597618189175,0.00117111592809
1580310897665005582,0.00386695149072,0.00105452793405,0.0023424063891
1580310897665016579,0.00175772108968,-0.00878843091549,0.00117111592809
1580310897670715803,-0.00140621177833,-0.0101946426938,0.00187378548494
1580310897670725234,0.00175772108968,0.0,0.00351352231719
1580310897677560370,0.00456997011342,0.00703070982581,0.00140533911371
1580310897677569862,0.00386695149072,0.00386695149072,0.00281085276034
1580310897698252890,0.000703018622703,-0.00492147942477,0.00281085276034
1580310897698269679,-0.00386695149072,-0.00984295884955,0.00281085276034
1580310897698283906,-0.00175772108968,0.00105452793405,0.00327929913157
1580310897698295891,0.00246073971239,0.00738221913716,0.00304507594595
1580310897707015757,0.00175772108968,0.00386695149072,0.00117111592809
1580310897707028778,-0.000351509311352,-0.00140621177833,-0.000234223185618
1580310897707039753,0.000351509311352,-0.00878843091549,0.0049188614309
1580310897716691433,0.00140621177833,0.0,0.00210818320348
1580310897716724395,0.00456997011342,0.0112491706279,-0.000234223185618
1580310897724048364,0.00246073971239,0.00843692160414,-0.00304507594595
1580310897724058710,0.000351509311352,-0.00597618189175,-0.00351352231719
1580310897745359236,-0.00351544217937,-0.0116006799392,-0.00187378548494
1580310897745371007,-0.00210923040104,0.0,0.0
1580310897745385857,0.00210923040104,0.00773390298144,-0.000702669556853
1580310897745426070,0.00105452793405,0.00632769120311,0.00117111592809
1580310897755643372,0.000703018622703,-0.00632769120311,0.00257662957472
1580310897755672290,-0.00105452793405,-0.0108976613165,0.00304507594595
1580310897755685801,-0.00597618189175,-0.0056246725804,0.000936892742471
1580310897755791272,-0.00281224902374,0.0094914495382,-0.00281085276034
1580310897760975683,0.00246073971239,0.0094914495382,0.000234223185618
1580310897760984615,0.000351509311352,-0.00175772108968,0.0023424063891
1580310897765730751,0.00105452793405,-0.00843692160414,0.0023424063891
1580310897771884966,-0.00105452793405,0.00281224902374,0.00117111592809
1580310897780689475,0.000351509311352,0.0112491706279,0.000936892742471
1580310897780725993,0.00175772108968,0.00527298873613,-0.00187378548494
1580310897786401776,0.00210923040104,-0.00527298873613,0.00117111592809
1580310897786442034,0.00105452793405,-0.00738221913716,0.0
1580310897803229097,-0.000351509311352,-0.00281224902374,0.0
1580310897803248072,0.00456997011342,0.00632769120311,-0.00117111592809
1580310897803261449,0.0105461520052,0.00738221913716,0.00398196868843
1580310897803270773,0.00351544217937,0.000703018622703,0.00468463824528
1580310897811869350,-0.000703018622703,-0.00632769120311,0.00304507594595
1580310897811890848,-0.00175772108968,0.00351544217937,-0.00187378548494
1580310897822525406,0.00316375833509,0.0105461520052,-0.00304507594595
1580310897822541563,0.00386695149072,0.00808541229279,-0.00374774550281
1580310897825821173,-0.00140621177833,-0.00421846080207,0.000702669556853
1580310897825833525,-0.00105452793405,-0.00456997011342,0.00304507594595
1580310897847796175,0.00105452793405,-0.00281224902374,0.000468446371235
1580310897847811945,0.00246073971239,0.00843692160414,-0.000468446371235
1580310897847827986,0.00246073971239,0.00667920051446,-0.000936892742471
1580310897847880217,-0.00105452793405,-0.00386695149072,-0.000702669556853
1580310897855414505,-0.00210923040104,-0.00878843091549,0.000702669556853
1580310897855440435,0.00175772108968,-0.00175772108968,0.00210818320348
1580310897855452994,0.00351544217937,0.0101946426938,-0.000468446371235
1580310897862367195,0.00316375833509,0.0112491706279,-0.000702669556853
1580310897862381837,0.0,0.000351509311352,0.0
1580310897868496267,-0.00246073971239,-0.00738221913716,0.000234223185618
1580310897868512318,-0.00140621177833,-0.000351509311352,-0.00163956229932
1580310897888424593,-0.00105452793405,0.00597618189175,-0.000234223185618
1580310897888437432,0.00421846080207,0.00386695149072,-0.00562153098775
1580310897888453412,0.00105452793405,0.0,-0.00140533911371
1580310897888465632,-0.00456997011342,-0.0056246725804,0.0
1580310897899933163,-0.00210923040104,-0.00140621177833,-0.00304507594595
1580310897899964262,0.00316375833509,0.0105461520052,-0.00421619187404
1580310897900011285,0.000351509311352,0.00527298873613,-0.00515308461651
1580310897908188817,0.00105452793405,-0.00597618189175,-0.00257662957472
1580310897908196166,0.00140621177833,-0.0101946426938,0.000234223185618
1580310897915444912,-0.00246073971239,-0.00351544217937,0.00117111592809
1580310897915451753,-0.00175772108968,0.0105461520052,-0.00140533911371
1580310897933111700,0.000703018622703,0.0094914495382,0.00327929913157
1580310897933123764,-0.00105452793405,-0.00386695149072,0.00655859826314
1580310897933139402,-0.0056246725804,-0.0133584010289,0.00351352231719
1580310897933150511,-0.00667920051446,-0.00703070982581,0.00210818320348
1580310897941323859,-0.000351509311352,0.0056246725804,0.00117111592809
1580310897941336754,0.00175772108968,0.00843692160414,-0.00140533911371
1580310897941349992,0.000703018622703,-0.00456997011342,-0.00163956229932
1580310897948991849,-0.00140621177833,-0.0112491706279,0.000468446371235
1580310897958548858,-0.00246073971239,-0.00632769120311,0.00257662957472
1580310897958582812,0.0,0.00843692160414,-0.000234223185618
1580310897966296691,0.00492147942477,0.00632769120311,0.00163956229932
1580310897966305253,0.00456997011342,-0.0056246725804,0.00281085276034
1580310897966312608,0.0,-0.00808541229279,0.00585575417337
1580310897972450214,-0.000351509311352,0.00421846080207,0.00655859826314
1580310897972474477,0.0,0.0130068917176,0.00304507594595
1580310897976701120,0.00210923040104,0.0112491706279,-0.000234223185618
1580310897981123165,0.00140621177833,-0.00175772108968,0.0023424063891
1580310897988358312,-0.000703018622703,-0.00527298873613,0.00117111592809
1580310897999300563,-0.000703018622703,-0.000351509311352,0.00163956229932
1580310897999314215,0.00316375833509,0.00632769120311,0.0
1580310897999324563,0.00667920051446,0.0105461520052,-0.00281085276034
1580310898008120718,0.00632769120311,0.000703018622703,-0.000702669556853
1580310898008136286,0.00175772108968,-0.00878843091549,0.0
1580310898012665172,0.00140621177833,-0.00281224902374,0.00445041505966
1580310898012672896,0.00351544217937,0.00843692160414,0.00117111592809
1580310898032859789,0.00351544217937,0.00878843091549,-0.0023424063891
1580310898032868482,0.00316375833509,-0.00281224902374,-0.000234223185618
1580310898032886454,0.00105452793405,-0.0116006799392,0.00468463824528
1580310898032915243,-0.000351509311352,-0.00492147942477,0.00210818320348
1580310898042711822,0.00105452793405,0.00492147942477,0.0
1580310898042760831,0.00527298873613,0.00738221913716,0.0
1580310898050421435,0.00456997011342,-0.00281224902374,0.00468463824528
1580310898050451478,0.00210923040104,-0.0108976613165,0.00538730780213
1580310898050492279,0.00492147942477,-0.00456997011342,0.0049188614309
1580310898066531239,0.00843692160414,0.00456997011342,0.000468446371235
1580310898066584222,0.0094914495382,0.00351544217937,0.00187378548494
1580310898066607227,0.0094914495382,-0.00281224902374,0.00281085276034
1580310898082392564,0.00667920051446,-0.00632769120311,0.0023424063891
1580310898082423479,-0.000351509311352,-0.00140621177833,0.00117111592809
1580310898082440121,0.00246073971239,0.00773390298144,0.0023424063891
1580310898082472753,0.00105452793405,0.0056246725804,-0.00281085276034
1580310898088162426,0.00105452793405,-0.000351509311352,-0.000468446371235
1580310898088201743,-0.00140621177833,-0.00984295884955,-0.00117111592809
1580310898096791062,-0.00140621177833,-0.00421846080207,0.000468446371235
1580310898096829504,0.00351544217937,0.00703070982581,0.000936892742471
1580310898106838898,0.00386695149072,0.0123038730949,0.0
1580310898106854737,0.00105452793405,0.00281224902374,0.0
1580310898106908602,-0.000351509311352,-0.00386695149072,0.000468446371235
1580310898113160145,-0.00351544217937,0.0,0.000702669556853
1580310898113199299,0.00351544217937,0.00984295884955,0.000234223185618
1580310898117046940,0.0056246725804,0.0101946426938,0.000234223185618
1580310898124291450,0.00703070982581,0.00281224902374,0.0
1580310898129408708,0.0,-0.00492147942477,0.00187378548494
1580310898129449732,-0.00210923040104,-0.000703018622703,0.00187378548494
1580310898134818618,-0.00105452793405,0.00878843091549,0.000702669556853
1580310898144756940,0.00281224902374,0.00984295884955,0.000468446371235
1580310898144782283,0.000351509311352,0.000351509311352,0.00679282144876
1580310898155076031,0.0,-0.00351544217937,0.00562153098775
1580310898155119067,0.00105452793405,-0.00140621177833,0.00468463824528
1580310898172994015,-0.000703018622703,0.0101946426938,-0.000702669556853
1580310898173000408,-0.000703018622703,0.0101946426938,0.00327929913157
1580310898173005802,0.00281224902374,-0.00175772108968,0.00281085276034
1580310898173020534,0.00246073971239,-0.0101946426938,0.00468463824528
1580310898179342561,0.00105452793405,-0.00246073971239,0.00819816056247
1580310898179358857,0.00316375833509,0.00703070982581,0.00515308461651
1580310898179365845,0.00246073971239,0.0123038730949,-0.000468446371235
1580310898183452267,0.00210923040104,0.00105452793405,-0.0023424063891
1580310898189773611,0.00351544217937,-0.00597618189175,0.00421619187404
1580310898189801590,0.0,-0.00492147942477,0.0049188614309
1580310898196956562,0.0,0.00597618189175,0.00304507594595
1580310898200679439,0.0056246725804,0.00632769120311,0.00445041505966
1580310898200689549,0.000703018622703,-0.000703018622703,0.0023424063891
1580310898208956278,0.00175772108968,-0.0137099103403,0.00257662957472
1580310898216250215,-0.00316375833509,-0.00667920051446,0.00304507594595
1580310898216275619,0.0,0.00703070982581,0.00163956229932
1580310898221159497,0.00175772108968,0.0119521892506,0.000234223185618
1580310898221174732,0.00316375833509,0.00316375833509,0.000702669556853
1580310898243563984,0.000351509311352,-0.00667920051446,0.00210818320348
1580310898243615554,0.00316375833509,-0.00492147942477,0.00374774550281
1580310898243628891,0.00351544217937,0.00527298873613,0.00398196868843
1580310898243649630,0.00386695149072,0.0112491706279,0.00304507594595
1580310898253814065,0.00281224902374,0.00105452793405,-0.00257662957472
1580310898253847359,0.0,-0.0094914495382,-0.0023424063891
1580310898253877296,0.000703018622703,-0.00632769120311,0.00163956229932
1580310898269044107,0.00386695149072,0.00632769120311,-0.00117111592809
1580310898269068104,0.00738221913716,0.0119521892506,0.0
1580310898269083778,0.00738221913716,0.00632769120311,0.00281085276034
1580310898283982186,0.00597618189175,-0.0101946426938,0.00421619187404
1580310898283995298,0.000703018622703,-0.00597618189175,0.00304507594595
1580310898284013626,0.0,0.00667920051446,0.00632437507753
1580310898284023386,0.0,0.00913994022684,0.00281085276034
1580310898284930256,0.000351509311352,-0.00105452793405,0.00140533911371
1580310898299089877,0.0,-0.0056246725804,0.0
1580310898299118135,-0.00175772108968,-0.00105452793405,-0.00210818320348
1580310898299129110,0.00246073971239,0.00808541229279,0.00140533911371
1580310898309998289,0.0056246725804,0.0133584010289,0.00257662957472
1580310898310021626,0.00351544217937,0.00175772108968,0.00140533911371
1580310898310030931,-0.000351509311352,-0.00808541229279,0.00562153098775
1580310898327418314,0.00140621177833,-0.00913994022684,0.00281085276034
1580310898327436536,0.00105452793405,0.00316375833509,0.00210818320348
1580310898327447632,0.000703018622703,0.00773390298144,0.0
1580310898327456836,0.00175772108968,-0.00105452793405,-0.000234223185618
1580310898336094640,0.00246073971239,-0.00632769120311,0.00374774550281
1580310898336111905,0.000351509311352,-0.00527298873613,0.000468446371235
1580310898336120890,0.000351509311352,0.00351544217937,0.0
1580310898343359020,0.00105452793405,0.00808541229279,0.00140533911371
1580310898343369083,-0.000351509311352,0.00351544217937,0.0023424063891
1580310898352466438,0.00210923040104,-0.00703070982581,0.00304507594595
1580310898352474356,-0.000351509311352,-0.00667920051446,0.00187378548494
1580310898370681025,0.0,0.00597618189175,-0.00187378548494
1580310898370689574,0.00105452793405,0.0101946426938,-0.000936892742471
1580310898370696628,0.00386695149072,0.000703018622703,-0.000234223185618
1580310898370702027,0.00175772108968,-0.00878843091549,0.00210818320348
1580310898377348928,-0.000351509311352,-0.0094914495382,0.00749549100561
1580310898377359196,0.00175772108968,0.000351509311352,0.00351352231719
1580310898377382896,0.00597618189175,0.00738221913716,-0.000468446371235
1580310898382289291,0.00386695149072,0.0,0.00210818320348
1580310898388523905,0.00140621177833,-0.00527298873613,0.00327929913157
1580310898397182142,0.00281224902374,-0.00984295884955,-0.000234223185618
1580310898397216508,0.00246073971239,0.0,0.0
1580310898405506433,0.00281224902374,0.0094914495382,-0.00117111592809
1580310898405520360,0.00210923040104,-0.00105452793405,-0.000468446371235
1580310898423074565,0.00246073971239,-0.00456997011342,0.000468446371235
1580310898423084919,-0.000703018622703,-0.00456997011342,0.00445041505966
1580310898423094681,-0.00175772108968,0.00351544217937,0.00304507594595
1580310898423121186,0.000703018622703,0.00738221913716,-0.0023424063891
1580310898431229249,0.0056246725804,0.00527298873613,-0.000936892742471
1580310898431250609,0.00281224902374,-0.00527298873613,0.000234223185618
1580310898431302760,-0.00140621177833,-0.00773390298144,0.000468446371235
1580310898436311275,-0.00316375833509,0.0,0.00187378548494
1580310898436446665,0.000703018622703,0.00492147942477,0.00562153098775
1580310898441712732,-0.000703018622703,0.000351509311352,0.00421619187404
1580310898449515852,-0.000351509311352,-0.00421846080207,0.0023424063891
1580310898449564128,-0.00140621177833,-0.00527298873613,0.00398196868843
1580310898464441246,0.0,0.00281224902374,0.00562153098775
1580310898464448718,0.0,0.0112491706279,0.00163956229932
1580310898464515113,0.00246073971239,0.00316375833509,0.00374774550281
1580310898474319401,0.00421846080207,-0.00703070982581,0.00398196868843
1580310898474360206,-0.00105452793405,-0.00351544217937,0.00163956229932
1580310898484030112,0.00175772108968,0.0056246725804,0.00257662957472
1580310898484047127,0.00386695149072,0.0116006799392,0.00117111592809
1580310898484059664,0.00386695149072,0.000351509311352,-0.00210818320348
1580310898495359414,-0.000351509311352,-0.00878843091549,0.0023424063891
1580310898495372979,0.000703018622703,-0.00703070982581,0.00304507594595
1580310898505410504,0.00351544217937,0.00597618189175,0.00445041505966
1580310898505446097,0.00246073971239,0.0112491706279,0.00445041505966
1580310898505458561,0.00456997011342,0.0056246725804,0.0
1580310898516510094,0.00316375833509,0.0,-0.000468446371235
1580310898516521992,-0.00246073971239,-0.00456997011342,0.0
1580310898526007780,-0.000351509311352,0.00421846080207,-0.000234223185618
1580310898526024384,0.000703018622703,0.0101946426938,-0.000936892742471
1580310898526031763,0.00246073971239,0.00808541229279,-0.00210818320348
1580310898539344277,-0.000703018622703,-0.0056246725804,0.000936892742471
1580310898539357147,0.000351509311352,-0.00913994022684,0.0023424063891
1580310898539373400,0.00210923040104,0.00210923040104,0.0023424063891
1580310898556080464,0.00281224902374,0.00913994022684,-0.000468446371235
1580310898556097328,0.00773390298144,0.00492147942477,0.00187378548494
1580310898556104592,0.00456997011342,-0.00421846080207,0.00398196868843
1580310898556111596,0.00281224902374,-0.00456997011342,0.00281085276034
1580310898563863785,0.00175772108968,0.00878843091549,0.00351352231719
1580310898563872040,0.0056246725804,0.0108976613165,0.00327929913157
1580310898563895506,0.00667920051446,0.00632769120311,0.0
1580310898573685442,0.00175772108968,-0.00703070982581,0.000936892742471
1580310898573714468,-0.00105452793405,-0.00667920051446,0.00421619187404
1580310898582734777,-0.00246073971239,-0.00316375833509,0.000234223185618
1580310898582773767,-0.00105452793405,0.00843692160414,-0.00210818320348
1580310898582799800,0.00175772108968,0.00456997011342,-0.000468446371235
1580310898589656230,0.00105452793405,-0.00667920051446,-0.00187378548494
1580310898589695545,-0.00140621177833,-0.00738221913716,-0.00163956229932
1580310898597357239,-0.000351509311352,0.00140621177833,0.000702669556853
1580310898605740833,0.00210923040104,0.00667920051446,-0.00117111592809
1580310898605750374,0.00246073971239,0.00210923040104,0.0
1580310898614793413,0.00281224902374,-0.00316375833509,-0.000234223185618
1580310898614812393,-0.00246073971239,0.000703018622703,0.00281085276034
1580310898631595044,0.000351509311352,0.00878843091549,0.00281085276034
1580310898631608991,0.00597618189175,0.0126553824062,0.000468446371235
1580310898631620285,0.00597618189175,0.00597618189175,0.00257662957472
1580310898631627278,0.00316375833509,-0.00351544217937,0.00187378548494
1580310898639131225,-0.000351509311352,-0.0137099103403,0.00257662957472
1580310898639156082,-0.00105452793405,-0.00386695149072,0.00304507594595
1580310898639167943,0.0,0.0108976613165,0.00304507594595
1580310898643921732,0.00421846080207,0.00808541229279,0.00257662957472
1580310898643944511,0.00843692160414,-0.00386695149072,0.000702669556853
1580310898652045015,0.000703018622703,-0.0112491706279,0.000702669556853
1580310898659076340,0.000351509311352,-0.000703018622703,0.00421619187404
1580310898659089877,0.00492147942477,0.0101946426938,0.0
1580310898665683473,0.0056246725804,0.00808541229279,0.0
1580310898676911930,0.00175772108968,-0.00281224902374,0.00421619187404
1580310898676931759,-0.00140621177833,-0.00527298873613,0.00210818320348
1580310898676947447,0.00175772108968,0.00105452793405,0.00374774550281
1580310898682903483,0.0,0.00597618189175,0.00374774550281
1580310898682917672,0.00105452793405,0.00527298873613,0.0049188614309
1580310898689842287,0.00105452793405,-0.00632769120311,0.00585575417337
1580310898689861888,-0.00140621177833,-0.00984295884955,0.00304507594595
1580310898712665481,-0.00351544217937,-0.00175772108968,0.00281085276034
1580310898712680493,-0.00105452793405,0.00808541229279,0.0023424063891
1580310898712694846,0.00140621177833,0.00351544217937,0.0
1580310898712802583,0.00175772108968,-0.00703070982581,0.0
1580310898720753061,0.00316375833509,-0.00597618189175,-0.00117111592809
1580310898720764940,0.0,0.00281224902374,0.00445041505966
1580310898720773184,0.0,0.0108976613165,0.0023424063891
1580310898729882036,0.00105452793405,0.00808541229279,-0.00257662957472
1580310898729908938,0.00175772108968,-0.00386695149072,-0.0023424063891
1580310898735685085,-0.00105452793405,-0.00703070982581,0.00445041505966
1580310898735711097,0.00210923040104,0.000703018622703,0.00445041505966
1580310898752992313,0.00175772108968,0.0101946426938,0.00210818320348
1580310898753016301,0.00703070982581,0.00210923040104,0.000936892742471
1580310898753028300,0.00246073971239,-0.00597618189175,0.00210818320348
1580310898753058843,-0.00175772108968,-0.00913994022684,0.00726126782
1580310898761297106,-0.000703018622703,0.000351509311352,0.0023424063891
1580310898761328047,-0.00351544217937,0.00773390298144,0.00163956229932
1580310898767094439,-0.00105452793405,0.00456997011342,0.000936892742471
1580310898767114078,0.00140621177833,-0.00210923040104,-0.000468446371235
1580310898776182243,-0.000351509311352,-0.00316375833509,0.00163956229932
1580310898776199767,-0.000351509311352,0.0,0.00117111592809
1580310898797797978,0.00210923040104,0.00808541229279,0.00210818320348
1580310898797815709,0.00281224902374,0.00527298873613,-0.00187378548494
1580310898797827314,0.00386695149072,-0.00386695149072,-0.000702669556853
1580310898797842687,0.00351544217937,-0.00667920051446,0.00210818320348
1580310898803600753,0.00351544217937,0.000351509311352,0.0
1580310898803611360,0.00351544217937,0.00738221913716,0.0
1580310898803623090,0.00140621177833,0.00386695149072,-0.00117111592809
1580310898812557996,-0.00140621177833,-0.00667920051446,0.000234223185618
1580310898812616598,-0.00246073971239,-0.0116006799392,-0.00281085276034
1580310898819196985,0.000703018622703,-0.000703018622703,-0.00117111592809
1580310898819205701,0.00316375833509,0.00773390298144,-0.000936892742471
1580310898838854998,0.00843692160414,0.00246073971239,-0.00187378548494
1580310898838868115,0.00527298873613,-0.00527298873613,-0.00210818320348
1580310898838886811,0.00105452793405,-0.00773390298144,0.00117111592809
1580310898838896681,0.000703018622703,-0.000351509311352,0.00445041505966
1580310898844503703,0.00140621177833,0.00597618189175,0.00421619187404
1580310898844519107,-0.00105452793405,0.000703018622703,0.00562153098775
1580310898844578900,0.000703018622703,-0.0056246725804,0.00257662957472
1580310898849543063,-0.00527298873613,-0.00843692160414,0.000702669556853
1580310898855676095,-0.00316375833509,0.00140621177833,0.00140533911371
1580310898862101994,0.00281224902374,0.0137099103403,0.0
1580310898862125910,0.00456997011342,0.00597618189175,0.0
1580310898868236135,0.00281224902374,-0.00386695149072,-0.00374774550281
1580310898873298811,-0.00140621177833,-0.0116006799392,-0.000234223185618
1580310898873312650,0.0,-0.00351544217937,-0.00421619187404
1580310898879272192,0.00527298873613,0.0056246725804,0.0
1580310898884669113,0.00843692160414,0.00246073971239,0.00257662957472
1580310898891065767,0.00351544217937,-0.00492147942477,0.0023424063891
1580310898891084103,0.00175772108968,-0.0105461520052,0.00374774550281
1580310898896628060,0.00527298873613,-0.00175772108968,0.0023424063891
1580310898896718973,0.00667920051446,0.00492147942477,0.00140533911371
1580310898917799674,0.00703070982581,0.00351544217937,0.00515308461651
1580310898917816246,0.00632769120311,-0.00527298873613,0.00304507594595
1580310898917826399,0.00316375833509,-0.0123038730949,0.00163956229932
1580310898917867711,0.000703018622703,-0.00527298873613,0.00187378548494
1580310898922351557,0.00210923040104,0.00456997011342,0.00163956229932
1580310898922399642,0.00773390298144,0.00386695149072,0.00187378548494
1580310898929748449,0.00773390298144,-0.0108976613165,0.00281085276034
1580310898929780289,0.000351509311352,-0.0101946426938,-0.000468446371235
1580310898935780172,0.00386695149072,-0.00140621177833,-0.000702669556853
1580310898942850643,0.00456997011342,0.00843692160414,-0.00421619187404
1580310898942873981,0.00281224902374,0.00386695149072,-0.00210818320348
1580310898947087690,0.00316375833509,-0.00703070982581,0.0
1580310898953321766,0.0,-0.0108976613165,-0.00257662957472
1580310898961108195,-0.00140621177833,-0.00281224902374,0.00117111592809
1580310898961151334,-0.00316375833509,0.00843692160414,0.00163956229932
1580310898964740440,0.00140621177833,0.00913994022684,0.000234223185618
1580310898964759083,0.0,-0.00492147942477,0.00398196868843
1580310898985809527,-0.000351509311352,-0.00703070982581,0.00351352231719
1580310898985820576,0.000351509311352,0.000351509311352,0.00351352231719
1580310898985830302,0.00140621177833,0.0116006799392,0.00163956229932
1580310898985875026,0.00281224902374,0.0140614196516,0.0
1580310899001691942,0.00421846080207,-0.000351509311352,0.000468446371235
1580310899001706857,0.0056246725804,-0.00913994022684,0.0
1580310899001758781,0.00456997011342,-0.000351509311352,0.0
1580310899011256965,-0.00105452793405,0.0116006799392,0.00163956229932
1580310899011264406,0.00351544217937,0.0133584010289,0.00304507594595
1580310899011286700,0.0,0.0,0.00210818320348
1580310899011313673,-0.000351509311352,-0.00913994022684,0.00117111592809
1580310899021670056,0.00492147942477,-0.000703018622703,0.00117111592809
1580310899021695906,0.00738221913716,0.00913994022684,-0.000468446371235
1580310899028564603,0.00632769120311,0.00913994022684,0.00163956229932
1580310899028576405,0.00316375833509,-0.00105452793405,0.000702669556853
1580310899047091429,0.00175772108968,-0.0101946426938,0.000234223185618
1580310899047104764,-0.00210923040104,-0.000703018622703,0.0023424063891
1580310899047113528,0.00210923040104,0.0056246725804,0.00304507594595
1580310899047125464,0.00456997011342,0.00386695149072,0.000702669556853
1580310899054653751,0.00703070982581,-0.000703018622703,0.00327929913157
1580310899054659660,0.00281224902374,-0.00878843091549,0.000936892742471
1580310899054689970,-0.00281224902374,-0.000351509311352,0.000702669556853
1580310899062921565,-0.00105452793405,0.00492147942477,0.0023424063891
1580310899062943796,0.00281224902374,0.0112491706279,0.0
1580310899068015270,-0.00140621177833,0.000351509311352,0.00351352231719
1580310899068047668,-0.00281224902374,-0.0108976613165,0.00281085276034
1580310899092517203,-0.00386695149072,-0.00281224902374,0.000936892742471
1580310899092537626,-0.00105452793405,0.0101946426938,-0.00187378548494
1580310899092573248,0.00456997011342,0.00984295884955,0.000468446371235
1580310899092617995,0.00210923040104,0.00351544217937,0.00140533911371
1580310899098408526,0.00105452793405,-0.00492147942477,0.000468446371235
1580310899098466504,-0.000351509311352,-0.00281224902374,0.00117111592809
1580310899098479855,0.00492147942477,0.00632769120311,-0.00281085276034
1580310899107499342,0.00984295884955,0.0116006799392,0.0
1580310899107555269,0.00773390298144,0.00281224902374,0.000468446371235
1580310899116080119,0.0,-0.00703070982581,0.000936892742471
1580310899116091229,-0.00140621177833,-0.00105452793405,0.00304507594595
1580310899135935053,-0.00456997011342,0.00597618189175,-0.000468446371235
1580310899135946545,0.00281224902374,0.00878843091549,-0.00445041505966
1580310899135954831,0.00281224902374,0.0,-0.00421619187404
1580310899135964553,0.00140621177833,-0.00492147942477,-0.00374774550281
1580310899138975157,0.0,-0.000351509311352,-0.000702669556853
1580310899138999773,0.00456997011342,0.00703070982581,0.000936892742471
1580310899139025869,0.00456997011342,0.00738221913716,0.000468446371235
1580310899144146539,0.00492147942477,-0.00246073971239,-0.00117111592809
1580310899154056151,0.00140621177833,-0.0112491706279,0.00257662957472
1580310899164873565,-0.00140621177833,-0.00281224902374,0.00374774550281
1580310899164891030,-0.000351509311352,0.00773390298144,0.00117111592809
1580310899176953267,0.00808541229279,0.00843692160414,0.0023424063891
1580310899176966270,0.00140621177833,-0.00421846080207,0.00398196868843
1580310899176987743,-0.00105452793405,-0.0119521892506,0.00445041505966
1580310899186885707,-0.00140621177833,-0.00492147942477,0.00140533911371
1580310899187005032,-0.000703018622703,0.00597618189175,0.00445041505966
1580310899187036801,0.00316375833509,0.00667920051446,-0.000234223185618
1580310899204346679,0.00210923040104,0.000351509311352,0.00140533911371
1580310899204356462,-0.00246073971239,-0.0094914495382,0.00117111592809
1580310899204475357,-0.00281224902374,-0.00386695149072,0.0
1580310899204494052,0.0,0.0101946426938,0.00281085276034
1580310899209801368,0.00246073971239,0.0123038730949,0.00445041505966
1580310899209817572,0.00421846080207,0.00175772108968,-0.00117111592809
1580310899209840488,0.000703018622703,-0.00421846080207,0.000234223185618
1580310899219028272,-0.00281224902374,-0.000351509311352,0.00163956229932
1580310899219043376,-0.00281224902374,0.00913994022684,0.00187378548494
1580310899226140596,-0.00246073971239,0.0123038730949,0.00210818320348
1580310899226157636,0.0,0.00140621177833,0.00562153098775
1580310899246283996,0.000351509311352,-0.00667920051446,0.00585575417337
1580310899246292149,0.00175772108968,-0.00456997011342,0.00398196868843
1580310899246298411,0.00175772108968,0.00316375833509,0.000936892742471
1580310899246325558,0.00281224902374,0.00597618189175,0.0023424063891
1580310899260121948,0.000703018622703,-0.00140621177833,0.00210818320348
1580310899260144898,-0.00316375833509,-0.00913994022684,0.00163956229932
1580310899260155141,-0.000703018622703,-0.00281224902374,0.00726126782
1580310899271213281,0.00246073971239,0.00527298873613,0.00421619187404
1580310899271235329,-0.000703018622703,0.0123038730949,-0.000702669556853
1580310899271265081,0.00175772108968,0.00527298873613,-0.000702669556853
1580310899282961033,0.00281224902374,-0.00351544217937,-0.000234223185618
1580310899282980051,0.000703018622703,0.000351509311352,0.00210818320348
1580310899282989456,0.00105452793405,0.0112491706279,0.00140533911371
1580310899299068239,0.00351544217937,0.0094914495382,0.00257662957472
1580310899299081047,0.0,0.000703018622703,0.0023424063891
1580310899299104172,0.00105452793405,-0.00913994022684,0.00632437507753
1580310899299135597,0.0,-0.00316375833509,0.00749549100561
1580310899304407686,0.00386695149072,0.00667920051446,0.0049188614309
1580310899304436486,0.00632769120311,0.0116006799392,0.0023424063891
1580310899309547995,0.000351509311352,0.00210923040104,0.00140533911371
1580310899313762787,0.0,-0.00738221913716,0.00210818320348
1580310899313778182,0.0,-0.0094914495382,0.00421619187404
1580310899316369142,0.0,0.000703018622703,0.00398196868843
1580310899319825586,0.000703018622703,0.00456997011342,0.000702669556853
1580310899324790050,-0.000703018622703,0.00140621177833,0.00140533911371
1580310899329282573,-0.00597618189175,-0.00492147942477,0.00585575417337
1580310899334074090,-0.00492147942477,-0.00281224902374,0.00562153098775
1580310899340351485,-0.000703018622703,0.00738221913716,0.00421619187404
1580310899347880098,0.00492147942477,0.0123038730949,0.00210818320348
1580310899347907521,0.00210923040104,0.0,0.0
1580310899353729618,-0.00105452793405,-0.0116006799392,0.0
1580310899353762394,-0.00597618189175,-0.00773390298144,0.0086666069337
1580310899379310394,-0.000351509311352,0.00351544217937,0.00281085276034
1580310899379321226,0.00878843091549,0.0094914495382,-0.000702669556853
1580310899379332135,0.00808541229279,0.0,0.00117111592809
1580310899379356237,-0.00140621177833,-0.00773390298144,0.00327929913157
1580310899387541214,-0.00175772108968,-0.00210923040104,0.00421619187404
1580310899387551870,-0.00246073971239,0.00421846080207,-0.00163956229932
1580310899387567394,0.000351509311352,0.0105461520052,-0.00140533911371
1580310899387611224,0.0,0.0,-0.00187378548494
1580310899398518143,0.00246073971239,-0.00527298873613,-0.000936892742471
1580310899406409367,-0.000703018622703,-0.00386695149072,0.000468446371235
1580310899406418369,0.00210923040104,0.00527298873613,0.000234223185618
1580310899406474716,0.0056246725804,0.0108976613165,-0.000936892742471
1580310899413386481,0.00281224902374,0.00175772108968,0.00187378548494
1580310899413488562,-0.00175772108968,-0.00703070982581,0.00468463824528
1580310899420670041,-0.00246073971239,-0.00140621177833,0.00374774550281
1580310899420743013,-0.00105452793405,0.00492147942477,0.00281085276034
1580310899437588848,0.00351544217937,0.00808541229279,0.000468446371235
1580310899437601734,0.00492147942477,-0.00246073971239,0.00140533911371
1580310899437626611,0.00210923040104,-0.00878843091549,-0.000702669556853
1580310899437642929,0.00175772108968,-0.00703070982581,0.00163956229932
1580310899445508546,0.0,0.0056246725804,0.00187378548494
1580310899445535617,0.000703018622703,0.00738221913716,0.00163956229932
1580310899453837097,0.000703018622703,0.00246073971239,-0.00304507594595
1580310899453874237,-0.00140621177833,-0.00632769120311,0.000702669556853
1580310899464677121,0.000351509311352,-0.00527298873613,0.00117111592809
1580310899464705626,0.00421846080207,0.00667920051446,0.00117111592809
1580310899464719618,0.00316375833509,0.00984295884955,0.00117111592809
1580310899472052500,0.00175772108968,0.00210923040104,0.00257662957472
1580310899472077507,-0.00140621177833,-0.00527298873613,0.00281085276034
1580310899477187608,-0.00105452793405,-0.0056246725804,0.00187378548494
1580310899477568617,0.00597618189175,0.00492147942477,-0.00140533911371
1580310899500346338,0.00738221913716,0.00667920051446,0.000234223185618
1580310899500365775,0.00492147942477,-0.00281224902374,0.00421619187404
1580310899500419495,0.00105452793405,-0.00667920051446,0.00257662957472
1580310899500432741,-0.00105452793405,-0.00421846080207,0.00398196868843
1580310899516215904,-0.00281224902374,0.00140621177833,0.00562153098775
1580310899516244109,0.00140621177833,0.00632769120311,0.00398196868843
1580310899516257899,0.00246073971239,-0.00351544217937,0.00421619187404
1580310899516303239,0.00105452793405,-0.0094914495382,0.00281085276034
1580310899525620174,-0.00105452793405,-0.00632769120311,0.00257662957472
1580310899525632569,-0.00175772108968,0.00281224902374,0.00140533911371
1580310899525639960,-0.000703018622703,0.00632769120311,-0.000234223185618
1580310899534038564,-0.00246073971239,0.0,-0.000468446371235
1580310899534065702,0.0,-0.00597618189175,0.00257662957472
1580310899545163824,0.00105452793405,-0.00175772108968,0.00257662957472
1580310899545175838,0.00386695149072,0.00808541229279,0.00351352231719
1580310899545217644,0.00421846080207,0.00878843091549,-0.000936892742471
1580310899552965919,0.00175772108968,0.00386695149072,0.0
1580310899552998465,-0.00210923040104,-0.00632769120311,0.00163956229932
1580310899561058222,-0.00175772108968,-0.00632769120311,0.00257662957472
1580310899561091350,-0.00105452793405,0.00667920051446,0.000702669556853
1580310899578306655,0.00175772108968,0.00984295884955,0.00374774550281
1580310899578316291,0.0,0.0,0.00187378548494
1580310899578343674,0.0,-0.00808541229279,0.00163956229932
1580310899578353543,-0.000703018622703,-0.00703070982581,0.00374774550281
1580310899588005305,0.00210923040104,0.0,0.00163956229932
1580310899588013206,0.00281224902374,0.00632769120311,0.000936892742471
1580310899588041047,0.00386695149072,-0.00210923040104,-0.000702669556853
1580310899600958108,-0.000703018622703,-0.00632769120311,0.000468446371235
1580310899600995943,-0.00140621177833,-0.00210923040104,0.00163956229932
1580310899608751930,0.00105452793405,0.00878843091549,0.0023424063891
1580310899608763160,0.0,0.00913994022684,0.0023424063891
1580310899608793362,-0.00175772108968,0.00281224902374,0.000234223185618
1580310899617819902,0.00210923040104,-0.00316375833509,0.00374774550281
1580310899617833104,0.000351509311352,-0.00316375833509,0.0049188614309
1580310899617850505,0.00105452793405,0.00738221913716,0.00468463824528
1580310899642215296,0.0056246725804,0.0105461520052,0.00374774550281
1580310899642233942,0.00210923040104,0.00386695149072,0.00304507594595
1580310899642245621,0.0,-0.00527298873613,0.0023424063891
1580310899642255516,-0.00281224902374,-0.00421846080207,0.00327929913157
1580310899659201413,0.0,0.00632769120311,0.00445041505966
1580310899659234640,0.00351544217937,0.00738221913716,0.00374774550281
1580310899659324739,0.00316375833509,0.00175772108968,0.00632437507753
1580310899659366308,0.00316375833509,-0.00632769120311,0.00281085276034
1580310899670675622,-0.000703018622703,-0.00492147942477,0.00351352231719
1580310899670701330,0.00246073971239,0.00527298873613,-0.00187378548494
1580310899670767961,0.00316375833509,0.0105461520052,-0.00281085276034
1580310899670776074,0.00246073971239,0.00351544217937,0.000234223185618
1580310899681706170,0.00105452793405,-0.0105461520052,0.00421619187404
1580310899681719056,-0.00105452793405,-0.00913994022684,0.00327929913157
1580310899681739515,0.000351509311352,0.00246073971239,0.00187378548494
1580310899688465271,0.00421846080207,0.0105461520052,-0.000936892742471
1580310899688500600,0.00421846080207,0.000703018622703,-0.00117111592809
1580310899710224789,-0.000351509311352,-0.0108976613165,0.000936892742471
1580310899710433191,-0.00597618189175,-0.00703070982581,0.00327929913157
1580310899710445334,-0.000351509311352,0.00667920051446,0.000468446371235
1580310899710454394,0.00281224902374,0.00843692160414,0.0
1580310899720190566,0.000703018622703,0.00456997011342,0.00210818320348
1580310899720204234,0.00246073971239,-0.00140621177833,0.00140533911371
1580310899720514549,-0.00105452793405,0.0,0.00327929913157
1580310899720540973,0.00456997011342,0.0112491706279,-0.000468446371235
1580310899739789840,0.00738221913716,0.00667920051446,-0.00163956229932
1580310899739804566,0.00281224902374,-0.00386695149072,0.00163956229932
1580310899739818526,0.00210923040104,-0.00667920051446,0.00304507594595
1580310899739828962,-0.00175772108968,-0.00140621177833,0.00327929913157
1580310899745009064,-0.00175772108968,0.0108976613165,0.0023424063891
1580310899745041069,-0.00140621177833,0.0108976613165,0.00374774550281
1580310899745078990,-0.00246073971239,-0.00105452793405,0.000702669556853
1580310899751410646,-0.00281224902374,-0.00492147942477,0.0
1580310899760555478,-0.00492147942477,-0.00246073971239,0.0023424063891
1580310899760564636,0.0,0.00632769120311,-0.000234223185618
1580310899769528246,0.00351544217937,0.00878843091549,0.00421619187404
1580310899769538698,0.00316375833509,0.00246073971239,0.00281085276034
1580310899769587791,0.000351509311352,-0.00843692160414,0.00187378548494
1580310899775693422,-0.00351544217937,-0.00597618189175,0.00445041505966
1580310899783931377,0.000703018622703,0.00632769120311,0.00117111592809
1580310899783945838,0.00210923040104,0.00667920051446,0.000234223185618
1580310899790759926,0.00105452793405,-0.000351509311352,-0.000234223185618
1580310899790763263,0.0,-0.00738221913716,0.00163956229932
1580310899809416954,0.0,-0.00351544217937,-0.000702669556853
1580310899809430862,0.00597618189175,0.00808541229279,-0.00304507594595
1580310899809453593,0.00597618189175,0.0112491706279,0.000468446371235
1580310899809465785,0.00632769120311,0.00246073971239,0.00163956229932
1580310899822762409,-0.000703018622703,-0.00913994022684,0.00187378548494
1580310899822773519,-0.00105452793405,-0.00456997011342,0.00445041505966
1580310899822807361,-0.000703018622703,0.00597618189175,0.000468446371235
1580310899835420299,0.00386695149072,0.0105461520052,-0.00140533911371
1580310899835433367,0.00351544217937,0.0,0.00187378548494
1580310899835454146,-0.00246073971239,-0.0094914495382,0.00421619187404
1580310899842718611,-0.00316375833509,-0.00703070982581,0.00257662957472
1580310899842733210,0.00140621177833,0.00773390298144,0.000936892742471
1580310899842742445,0.00175772108968,0.0108976613165,0.000468446371235
1580310899862220074,0.00105452793405,0.00210923040104,0.00421619187404
1580310899862232179,-0.00105452793405,-0.0056246725804,0.000468446371235
1580310899862240499,-0.00175772108968,-0.00597618189175,0.00257662957472
1580310899862252048,-0.00316375833509,0.00632769120311,0.00187378548494
1580310899868748037,0.000351509311352,0.00773390298144,-0.000702669556853
1580310899868759147,0.00105452793405,0.00316375833509,-0.00117111592809
1580310899868768093,0.00210923040104,-0.00527298873613,0.00117111592809
1580310899875201058,0.0,-0.00140621177833,0.00187378548494
1580310899879496830,-0.00351544217937,0.00808541229279,0.00257662957472
1580310899879535993,-0.0056246725804,0.00913994022684,-0.000936892742471
1580310899886816274,0.000703018622703,0.00351544217937,0.000936892742471
1580310899901681915,0.000703018622703,-0.00738221913716,0.00327929913157
1580310899901708323,-0.00105452793405,-0.00456997011342,0.00210818320348
1580310899901739417,-0.00281224902374,0.00351544217937,0.00163956229932
1580310899908943417,0.00492147942477,0.00738221913716,0.000702669556853
1580310899908958152,0.00667920051446,-0.000351509311352,0.000936892742471
1580310899916530709,0.00316375833509,-0.00527298873613,0.00304507594595
1580310899916545856,0.0,-0.00492147942477,0.00117111592809
1580310899934375892,0.00140621177833,0.00527298873613,0.00187378548494
1580310899934386089,0.00246073971239,0.00913994022684,0.00327929913157
1580310899934393390,0.00140621177833,0.00281224902374,0.00163956229932
1580310899934399705,-0.00281224902374,-0.00105452793405,0.00351352231719
1580310899941579646,-0.00281224902374,-0.00281224902374,0.00140533911371
1580310899941587383,0.00105452793405,0.0094914495382,0.000468446371235
1580310899946015002,0.00105452793405,0.0112491706279,0.0
1580310899946042749,0.000351509311352,0.00492147942477,-0.00187378548494
1580310899953131647,0.00281224902374,-0.00527298873613,0.00210818320348
1580310899957849384,0.00351544217937,-0.00492147942477,0.00163956229932
1580310899957858201,0.00175772108968,0.00421846080207,-0.000234223185618
1580310899970287014,0.00246073971239,0.0101946426938,-0.00281085276034
1580310899970295580,0.0,0.00105452793405,-0.00327929913157
1580310899986402119,-0.00105452793405,-0.00421846080207,0.00163956229932
1580310899986418477,-0.000351509311352,-0.00175772108968,0.000702669556853
1580310899986428978,-0.00105452793405,0.00773390298144,0.00163956229932
1580310899986445476,0.00140621177833,0.00913994022684,0.00210818320348
1580310899994884814,0.000351509311352,-0.000351509311352,0.000234223185618
1580310899994910881,-0.00246073971239,-0.00843692160414,-0.000702669556853
1580310899995001424,0.0,0.000703018622703,0.00468463824528
1580310900006365459,0.0,0.00773390298144,0.00632437507753
1580310900007574999,0.00386695149072,0.00773390298144,0.000468446371235
1580310900015447450,0.00210923040104,-0.00246073971239,0.00304507594595
1580310900015451816,0.00351544217937,-0.00808541229279,0.00655859826314
1580310900030623649,0.0,-0.00210923040104,0.00304507594595
1580310900030629788,-0.00105452793405,0.0056246725804,0.00210818320348
1580310900030637590,0.00527298873613,0.0108976613165,-0.00257662957472
1580310900030643497,0.00351544217937,0.00210923040104,0.0
1580310900037105864,0.0,-0.00597618189175,0.00351352231719
1580310900037116079,0.00175772108968,-0.00210923040104,0.00117111592809
1580310900037137114,0.00175772108968,0.00738221913716,-0.000936892742471
1580310900046056543,0.00316375833509,0.0105461520052,-0.00187378548494
1580310900057005192,0.0,-0.00281224902374,0.000468446371235
1580310900057019498,-0.00175772108968,-0.0119521892506,0.00351352231719
1580310900057026753,-0.00421846080207,-0.00703070982581,0.00327929913157
1580310900060632771,-0.00281224902374,0.00527298873613,0.000702669556853
1580310900060672889,-0.00105452793405,0.00808541229279,0.0
1580310900073084289,0.00210923040104,0.000703018622703,0.00187378548494
1580310900073107222,-0.00281224902374,-0.00632769120311,0.00351352231719
1580310900097892364,-0.00351544217937,-0.00246073971239,0.00421619187404
1580310900097911715,0.0,0.00632769120311,0.00445041505966
1580310900097953040,0.00316375833509,0.00703070982581,0.00351352231719
1580310900097973132,0.00456997011342,-0.00105452793405,0.00562153098775
1580310900112308556,-0.000351509311352,-0.00316375833509,0.00585575417337
1580310900112331598,-0.00351544217937,-0.00105452793405,0.00187378548494
1580310900112363431,-0.00351544217937,0.00667920051446,0.00117111592809
1580310900112397944,0.00105452793405,0.00703070982581,0.00140533911371
1580310900112451321,0.00351544217937,0.0,0.00140533911371
1580310900122510553,0.00105452793405,-0.00527298873613,0.00117111592809
1580310900122539591,-0.00210923040104,-0.00632769120311,0.00304507594595
1580310900122576616,0.00105452793405,0.00456997011342,0.000468446371235
1580310900137365811,0.00492147942477,0.00808541229279,0.000702669556853
1580310900137384648,0.00246073971239,-0.000351509311352,-0.000468446371235
1580310900137431615,0.0,-0.00913994022684,0.00351352231719
1580310900150873569,-0.00246073971239,-0.00667920051446,0.00117111592809
1580310900150890063,0.00246073971239,0.00421846080207,-0.00140533911371
1580310900150899206,0.00878843091549,0.00667920051446,0.0
1580310900150904759,0.00316375833509,-0.00316375833509,-0.0023424063891
1580310900164942215,-0.00105452793405,-0.0094914495382,0.0
1580310900164975014,-0.00210923040104,-0.00632769120311,0.000936892742471
1580310900164987242,0.00386695149072,0.00597618189175,0.00163956229932
1580310900174031757,0.00597618189175,0.00913994022684,-0.000936892742471
1580310900174042510,0.00597618189175,0.00140621177833,-0.000936892742471
1580310900174075787,0.00386695149072,-0.00808541229279,0.000468446371235
1580310900187714997,-0.000351509311352,-0.00351544217937,0.00351352231719
1580310900187763535,0.00175772108968,0.00281224902374,0.00327929913157
1580310900203418973,0.00210923040104,0.00773390298144,0.00281085276034
1580310900203435822,0.000703018622703,0.00246073971239,0.000702669556853
1580310900203538709,-0.00140621177833,-0.00632769120311,0.0023424063891
1580310900203551759,0.00105452793405,-0.00421846080207,0.0086666069337
1580310900224881680,0.00210923040104,0.00351544217937,0.0049188614309
1580310900224896735,0.00246073971239,0.00597618189175,0.00140533911371
1580310900224928458,0.000351509311352,-0.00456997011342,0.000468446371235
1580310900224942751,0.00140621177833,-0.00808541229279,0.00304507594595
1580310900224957843,-0.000351509311352,-0.00175772108968,0.000936892742471
1580310900242166093,0.0,0.00597618189175,0.0
1580310900242211691,-0.000703018622703,0.00632769120311,-0.000702669556853
1580310900242228716,0.00492147942477,-0.00386695149072,0.000702669556853
1580310900242243007,0.00386695149072,-0.00984295884955,0.000468446371235
1580310900249546504,0.00246073971239,-0.00175772108968,0.00163956229932
1580310900249594704,0.00351544217937,0.00808541229279,-0.000468446371235
1580310900249614670,0.00246073971239,0.0101946426938,-0.00187378548494
1580310900249626617,0.00386695149072,0.0,-0.00117111592809
1580310900267614418,-0.000703018622703,-0.00984295884955,0.000702669556853
1580310900267636120,-0.00175772108968,-0.00351544217937,-0.000234223185618
1580310900267650930,0.00246073971239,0.00667920051446,-0.000468446371235
1580310900267662028,0.00281224902374,0.00703070982581,0.00187378548494
1580310900277269668,0.00351544217937,-0.000351509311352,0.0
1580310900277292621,-0.000703018622703,-0.0101946426938,0.00304507594595
1580310900277322366,-0.000351509311352,-0.00386695149072,0.000702669556853
1580310900295275607,0.000351509311352,0.00913994022684,-0.000936892742471
1580310900295301198,0.00281224902374,0.0112491706279,0.000234223185618
1580310900312304501,0.00246073971239,-0.00175772108968,-0.000936892742471
1580310900312324095,-0.00281224902374,-0.00738221913716,-0.00398196868843
1580310900312345885,-0.00140621177833,-0.0056246725804,0.000468446371235
1580310900312392806,0.00351544217937,0.0094914495382,0.000468446371235
1580310900312404003,0.00456997011342,0.0116006799392,0.000234223185618
1580310900324443161,0.00140621177833,0.00316375833509,0.00187378548494
1580310900324450035,0.000703018622703,-0.0101946426938,0.00140533911371
1580310900324478518,-0.00105452793405,-0.00210923040104,0.00210818320348
1580310900324544605,-0.000703018622703,0.00632769120311,-0.000468446371235
1580310900332849450,0.0,0.00703070982581,0.00140533911371
1580310900332874814,0.00316375833509,0.0,0.00585575417337
1580310900332885052,0.00386695149072,-0.0056246725804,0.000702669556853
1580310900339686543,0.00246073971239,-0.00140621177833,0.000468446371235
1580310900339726437,0.00105452793405,0.00984295884955,0.00117111592809
1580310900346037099,0.00281224902374,0.00878843091549,0.000936892742471
1580310900346060456,0.00175772108968,0.00316375833509,0.00281085276034
1580310900365658193,-0.000703018622703,-0.00456997011342,0.0023424063891
1580310900365666188,-0.000703018622703,-0.00316375833509,-0.000468446371235
1580310900366001512,-0.00105452793405,0.00632769120311,-0.00468463824528
1580310900366021673,0.00492147942477,0.00984295884955,-0.00257662957472
1580310900372179324,0.00527298873613,0.0,-0.000936892742471
1580310900372209320,0.000351509311352,-0.00843692160414,0.000468446371235
1580310900375080756,0.0,-0.00456997011342,-0.000468446371235
1580310900375123517,-0.000351509311352,0.00527298873613,0.00163956229932
1580310900381766990,-0.000703018622703,0.00773390298144,0.00445041505966
1580310900390370550,0.0056246725804,0.0,0.00421619187404
1580310900390385008,0.000351509311352,-0.00808541229279,0.00468463824528
1580310900395548261,-0.00281224902374,-0.0056246725804,0.00281085276034
1580310900404297971,0.00105452793405,0.00808541229279,0.00163956229932
1580310900404350982,0.00175772108968,0.0119521892506,0.0
1580310900408688540,0.00175772108968,0.00281224902374,0.0
1580310900408700371,0.00210923040104,-0.00492147942477,-0.00210818320348
1580310900437887897,0.00210923040104,-0.00421846080207,0.000234223185618
1580310900437911538,0.00140621177833,0.00597618189175,0.000234223185618
1580310900437936753,0.00246073971239,0.00878843091549,-0.000936892742471
1580310900437963748,0.00210923040104,0.000351509311352,-0.00210818320348
1580310900446926901,-0.00421846080207,-0.00703070982581,0.00140533911371
1580310900446952449,-0.00386695149072,-0.00597618189175,-0.000468446371235
