%time,field.x,field.y,field.z
1580310897414353089,0.00351544217937,0.00175772108968,0.00117111592809
1580310897414850408,0.00175772108968,0.00316375833509,-0.00140533911371
1580310897415072693,-0.00386695149072,-0.000351509311352,-0.00140533911371
1580310897415438251,-0.000351509311352,0.000351509311352,0.0
1580310897415514306,0.00386695149072,0.00281224902374,0.0
1580310897415629991,0.00597618189175,0.00492147942477,-0.00257662957472
1580310897419119971,0.00246073971239,0.00281224902374,0.000936892742471
1580310897420101966,0.00210923040104,0.000351509311352,0.0023424063891
1580310897421686660,-0.000351509311352,0.00105452793405,0.00398196868843
1580310897421779907,-0.00246073971239,-0.00281224902374,0.00117111592809
1580310897421792424,-0.00140621177833,-0.00105452793405,-0.000936892742471
1580310897421798215,-0.00351544217937,-0.00210923040104,0.000936892742471
1580310897421814525,-0.00492147942477,-0.000703018622703,-0.000234223185618
1580310897421823610,-0.00773390298144,-0.00597618189175,0.000468446371235
1580310897421832152,0.000351509311352,-0.00667920051446,0.00163956229932
1580310897421842243,0.00105452793405,-0.00316375833509,-0.00163956229932
1580310897421845963,-0.00105452793405,0.00175772108968,0.0
1580310897421850768,-0.00316375833509,0.00210923040104,0.00140533911371
1580310897421856482,-0.00351544217937,0.0,-0.000234223185618
1580310897422307783,-0.00492147942477,-0.000703018622703,0.000936892742471
1580310897423249399,0.0,0.00175772108968,0.00398196868843
1580310897423257108,0.000703018622703,-0.000351509311352,0.00257662957472
1580310897423264541,-0.00386695149072,-0.00386695149072,-0.00163956229932
1580310897423333941,-0.00210923040104,-0.000703018622703,-0.00398196868843
1580310897423338590,0.000351509311352,-0.0056246725804,-0.000468446371235
1580310897423345633,0.000703018622703,0.000703018622703,-0.000702669556853
1580310897423352495,-0.00281224902374,0.0,0.0023424063891
1580310897423368677,-0.00386695149072,0.00105452793405,-0.00117111592809
1580310897423383371,-0.00703070982581,0.00210923040104,0.000936892742471
1580310897423400802,-0.00316375833509,0.0,-0.00210818320348
1580310897424153267,0.000351509311352,-0.00492147942477,0.0
1580310897424159075,0.00246073971239,-0.00281224902374,0.000468446371235
1580310897424266863,-0.000351509311352,-0.00246073971239,0.000702669556853
1580310897424959075,-0.00246073971239,0.00105452793405,0.00210818320348
1580310897424973855,-0.00140621177833,0.000351509311352,0.00351352231719
1580310897425103733,0.00421846080207,0.000703018622703,0.00140533911371
1580310897425865465,-0.00281224902374,0.00527298873613,0.000936892742471
1580310897426409525,-0.00492147942477,0.00632769120311,-0.000936892742471
1580310897426881468,-0.00351544217937,0.00105452793405,-0.00398196868843
1580310897426894697,-0.00351544217937,-0.000703018622703,-0.000936892742471
1580310897426905406,-0.000703018622703,0.000351509311352,0.0023424063891
1580310897426910901,0.0,0.00351544217937,0.000702669556853
1580310897426924266,-0.00281224902374,0.00175772108968,-0.00117111592809
1580310897426928944,-0.00316375833509,0.0,-0.000936892742471
1580310897427017146,0.000351509311352,-0.000703018622703,0.00374774550281
1580310897427411517,0.00210923040104,0.00386695149072,0.00351352231719
1580310897427421558,0.00316375833509,0.000351509311352,-0.000234223185618
1580310897427429499,0.00210923040104,-0.000703018622703,-0.000468446371235
1580310897427434802,0.0,-0.00421846080207,-0.00210818320348
1580310897427444030,0.00140621177833,-0.00210923040104,-0.00257662957472
1580310897427451652,0.00281224902374,0.00456997011342,-0.00140533911371
1580310897427455336,0.00281224902374,0.00386695149072,-0.00304507594595
1580310897427459182,0.0,-0.00351544217937,-0.00281085276034
1580310897427463245,-0.000703018622703,-0.00667920051446,0.00163956229932
1580310897427472122,0.00386695149072,-0.00597618189175,0.000936892742471
1580310897427892073,-0.00140621177833,-0.000351509311352,0.000234223185618
1580310897427903814,-0.00175772108968,0.00140621177833,0.0
1580310897427911858,0.0,-0.000351509311352,-0.00585575417337
1580310897427920569,0.0,-0.00492147942477,-0.0049188614309
1580310897427928538,-0.000703018622703,-0.00140621177833,0.000468446371235
1580310897427939137,0.000703018622703,0.00105452793405,-0.000702669556853
1580310897427949786,0.00175772108968,-0.00246073971239,-0.00117111592809
1580310897428398147,-0.00492147942477,0.00105452793405,0.00187378548494
1580310897428406408,0.000351509311352,-0.000703018622703,0.000936892742471
1580310897428418427,0.000351509311352,0.00105452793405,-0.00281085276034
1580310897428422346,-0.000351509311352,-0.00175772108968,0.00117111592809
1580310897428428901,0.00140621177833,0.00175772108968,0.000936892742471
1580310897428435557,0.00246073971239,0.00246073971239,0.000468446371235
1580310897428444169,-0.000703018622703,0.00140621177833,0.00163956229932
1580310897428456470,-0.000351509311352,0.00421846080207,-0.000702669556853
1580310897428712495,0.00140621177833,0.00597618189175,-0.00140533911371
1580310897428791795,-0.000703018622703,0.00667920051446,-0.00163956229932
1580310897428797351,0.0,0.00246073971239,-0.00210818320348
1580310897428804737,0.0,0.00210923040104,-0.00117111592809
1580310897428811314,-0.00456997011342,0.00386695149072,0.0023424063891
1580310897428820735,-0.00527298873613,0.00386695149072,0.00257662957472
1580310897428825384,-0.00281224902374,0.0,0.00163956229932
1580310897429242071,-0.00140621177833,-0.0056246725804,0.00398196868843
1580310897429499989,-0.00316375833509,-0.00316375833509,0.00398196868843
1580310897429528339,-0.00140621177833,-0.00246073971239,-0.000468446371235
1580310897429711927,-0.00456997011342,0.00140621177833,0.0
1580310897429873890,-0.00105452793405,0.00175772108968,0.00327929913157
1580310897430162039,-0.00175772108968,0.00175772108968,0.0023424063891
1580310897430466596,0.000351509311352,0.000703018622703,-0.000468446371235
1580310897433968222,-0.00105452793405,-0.00105452793405,0.000234223185618
1580310897434073296,-0.00210923040104,-0.000351509311352,0.00163956229932
1580310897434091076,-0.00175772108968,0.00175772108968,-0.00117111592809
1580310897434099696,0.00246073971239,0.00175772108968,-0.00140533911371
1580310897434109789,-0.00175772108968,0.00281224902374,0.000468446371235
1580310897434201312,-0.0056246725804,-0.000351509311352,-0.00281085276034
1580310897434242367,-0.00386695149072,-0.00140621177833,-0.00445041505966
1580310897434292286,-0.00246073971239,-0.00386695149072,-0.0049188614309
1580310897434428642,-0.00527298873613,-0.00175772108968,-0.000468446371235
1580310897436844465,-0.00456997011342,-0.00527298873613,0.00163956229932
1580310897437194356,-0.0056246725804,0.00105452793405,-0.00257662957472
1580310897437295540,-0.000703018622703,0.00105452793405,-0.00210818320348
1580310897437396279,0.0,0.0,-0.00140533911371
1580310897437565792,-0.00140621177833,0.00351544217937,-0.000234223185618
1580310897437594563,-0.00421846080207,-0.000351509311352,-0.000468446371235
1580310897437693339,-0.00281224902374,-0.00246073971239,-0.00187378548494
1580310897437701746,0.0,-0.000703018622703,-0.00117111592809
1580310897437709975,-0.00386695149072,0.000703018622703,0.00140533911371
1580310897437774812,-0.00351544217937,-0.00210923040104,0.000702669556853
1580310897437821080,-0.00105452793405,-0.00421846080207,-0.00140533911371
1580310897437831847,0.00105452793405,0.000703018622703,0.00421619187404
1580310897438302881,0.00281224902374,0.00316375833509,0.00538730780213
1580310897441969417,0.00281224902374,0.00316375833509,0.00281085276034
1580310897442777760,0.00210923040104,0.00246073971239,0.00374774550281
1580310897442788091,0.000351509311352,-0.000703018622703,0.00538730780213
1580310897442803308,0.00210923040104,-0.000351509311352,-0.000936892742471
1580310897460545298,0.0,-0.00175772108968,-0.00210818320348
1580310897460561064,0.0,-0.00246073971239,0.0
1580310897460570368,0.00421846080207,-0.00105452793405,0.0
1580310897460576614,0.00456997011342,-0.000351509311352,-0.000468446371235
1580310897468660240,0.00421846080207,-0.00386695149072,-0.00117111592809
1580310897468698825,0.00527298873613,-0.00140621177833,-0.00421619187404
1580310897468736139,0.00316375833509,0.000351509311352,-0.000702669556853
1580310897476972392,0.0,-0.00527298873613,-0.000234223185618
1580310897476992595,0.000703018622703,-0.0056246725804,0.000468446371235
1580310897483725192,0.00281224902374,-0.00210923040104,0.0
1580310897483742348,0.000703018622703,-0.00316375833509,0.00117111592809
1580310897506736446,0.0,-0.000703018622703,0.00140533911371
1580310897506757727,-0.00386695149072,0.000351509311352,0.00117111592809
1580310897506769898,-0.00527298873613,0.00281224902374,-0.0023424063891
1580310897506779219,-0.000351509311352,0.00105452793405,-0.00327929913157
1580310897516967532,0.00316375833509,-0.00386695149072,0.00210818320348
1580310897516985774,0.00456997011342,-0.00492147942477,0.0
1580310897516993902,0.0,0.000351509311352,-0.00117111592809
1580310897524904893,-0.00351544217937,0.00105452793405,0.00187378548494
1580310897524917669,-0.000703018622703,0.00140621177833,0.0
1580310897524941577,-0.00210923040104,0.000351509311352,-0.000702669556853
1580310897533157129,-0.00246073971239,0.000351509311352,0.00304507594595
1580310897533268141,-0.00105452793405,-0.00175772108968,0.00117111592809
1580310897545368443,-0.00281224902374,-0.00316375833509,0.000936892742471
1580310897545382264,-0.00492147942477,0.0,0.00327929913157
1580310897545451574,-0.000703018622703,0.000351509311352,0.00515308461651
1580310897552205230,0.00210923040104,0.00316375833509,0.0049188614309
1580310897552223029,0.00210923040104,0.00246073971239,0.000234223185618
1580310897559343594,0.00105452793405,0.000351509311352,-0.00210818320348
1580310897567804270,-0.000703018622703,-0.00246073971239,-0.000936892742471
1580310897567840087,-0.00175772108968,-0.00105452793405,0.00281085276034
1580310897576131560,-0.00105452793405,0.00246073971239,-0.0023424063891
1580310897576148994,0.0,0.000351509311352,-0.00140533911371
1580310897576174833,0.0,-0.00210923040104,0.000702669556853
1580310897584343586,0.00210923040104,-0.00492147942477,0.00398196868843
1580310897584353886,0.000351509311352,0.00210923040104,0.00374774550281
1580310897600457182,0.0,0.00773390298144,0.00936927649056
1580310897600500642,0.00351544217937,0.00351544217937,0.00257662957472
1580310897619728351,-0.00140621177833,0.00175772108968,0.00468463824528
1580310897619741105,0.0,-0.00140621177833,0.00515308461651
1580310897619756528,-0.00351544217937,-0.00316375833509,0.00187378548494
1580310897619771182,-0.00351544217937,0.00703070982581,0.000234223185618
1580310897628941853,-0.00210923040104,0.00667920051446,-0.00187378548494
1580310897628953446,-0.00210923040104,0.0,-0.00210818320348
1580310897628967344,0.00175772108968,-0.00140621177833,-0.00304507594595
1580310897628980337,0.00140621177833,0.00140621177833,0.000936892742471
1580310897628987736,0.00175772108968,0.00105452793405,0.00187378548494
1580310897635947812,-0.00175772108968,-0.00105452793405,0.00538730780213
1580310897635979246,0.0,-0.00140621177833,0.00351352231719
1580310897642460532,-0.00140621177833,-0.00281224902374,-0.000702669556853
1580310897642488987,-0.00210923040104,0.00210923040104,0.000234223185618
1580310897661676341,0.0,-0.000351509311352,0.000936892742471
1580310897661685605,-0.00246073971239,-0.000351509311352,0.00187378548494
1580310897661693288,-0.00351544217937,0.00386695149072,-0.00117111592809
1580310897661741918,-0.00246073971239,0.0056246725804,-0.00398196868843
1580310897669336216,-0.000703018622703,0.00281224902374,0.000234223185618
1580310897669406840,0.000703018622703,0.00105452793405,-0.000936892742471
1580310897677503401,0.000351509311352,0.00140621177833,-0.000234223185618
1580310897677546192,-0.000703018622703,-0.000351509311352,-0.00140533911371
1580310897681154685,0.0,-0.00105452793405,-0.00304507594595
1580310897681175244,0.000703018622703,0.000703018622703,0.0
1580310897706446181,0.00316375833509,0.0,0.00445041505966
1580310897706456773,0.0,-0.000351509311352,0.000936892742471
1580310897706500375,0.0,-0.00175772108968,-0.00117111592809
1580310897706511157,-0.00281224902374,-0.000351509311352,0.000234223185618
1580310897716588660,-0.00105452793405,-0.000351509311352,0.00140533911371
1580310897716603271,0.00175772108968,0.00492147942477,0.0023424063891
1580310897716624182,0.00316375833509,0.00316375833509,-0.00210818320348
1580310897716632860,0.00316375833509,-0.00175772108968,-0.00187378548494
1580310897722871603,-0.000351509311352,-0.00175772108968,-0.00257662957472
1580310897723126260,0.00246073971239,-0.000351509311352,-0.00374774550281
1580310897729842612,0.00421846080207,0.00210923040104,-0.00468463824528
1580310897744006667,-0.00281224902374,0.00351544217937,-0.00515308461651
1580310897744053487,-0.00316375833509,0.00140621177833,-0.000936892742471
1580310897744064406,-0.00386695149072,0.00105452793405,-0.00140533911371
1580310897750344487,-0.00210923040104,0.000703018622703,-0.00281085276034
1580310897750359759,0.000703018622703,-0.00210923040104,-0.00351352231719
1580310897750386213,-0.00140621177833,0.000351509311352,-0.00163956229932
1580310897770391473,0.0,0.00246073971239,0.000936892742471
1580310897770396962,-0.000351509311352,0.00281224902374,0.00374774550281
1580310897770416762,-0.000703018622703,-0.00140621177833,0.0
1580310897770423497,0.00140621177833,0.00105452793405,-0.00140533911371
1580310897778886187,-0.00246073971239,0.000703018622703,0.00515308461651
1580310897778895095,-0.00281224902374,-0.000351509311352,0.00445041505966
1580310897783985018,-0.00210923040104,-0.00210923040104,0.00538730780213
1580310897783989845,0.00140621177833,-0.00210923040104,0.00538730780213
1580310897789967171,0.00105452793405,-0.00210923040104,0.00117111592809
1580310897789978734,0.000703018622703,0.00175772108968,-0.00140533911371
1580310897811282269,-0.00140621177833,0.000703018622703,-0.00210818320348
1580310897811294804,-0.00632769120311,-0.000703018622703,-0.00398196868843
1580310897811311925,-0.00421846080207,0.00140621177833,-0.00562153098775
1580310897811322116,-0.00281224902374,0.00281224902374,-0.00281085276034
1580310897822453159,-0.00140621177833,-0.00246073971239,-0.00398196868843
1580310897822477641,0.00140621177833,-0.00281224902374,-0.00468463824528
1580310897822537102,0.000351509311352,-0.00105452793405,-0.00327929913157
1580310897825774942,0.000703018622703,-0.000703018622703,-0.00187378548494
1580310897825794048,0.00210923040104,0.00492147942477,-0.000468446371235
1580310897834005560,0.00281224902374,0.000351509311352,-0.00163956229932
1580310897839343914,-0.000351509311352,-0.000351509311352,0.000234223185618
1580310897839369473,-0.00210923040104,0.0,0.0023424063891
1580310897848799094,-0.00175772108968,0.00246073971239,-0.00163956229932
1580310897857037384,-0.00105452793405,0.000703018622703,0.00374774550281
1580310897857061491,-0.00246073971239,0.00140621177833,0.00819816056247
1580310897857100346,-0.00105452793405,0.000703018622703,-0.000936892742471
1580310897864158438,0.0,0.0,0.000702669556853
1580310897864195306,0.0,0.00105452793405,-0.000702669556853
1580310897871434627,0.00140621177833,0.00456997011342,-0.000234223185618
1580310897878006789,0.00632769120311,0.00246073971239,-0.00117111592809
1580310897878057572,0.000351509311352,0.00175772108968,-0.000468446371235
1580310897885825025,0.00175772108968,0.00140621177833,-0.000936892742471
1580310897885839280,0.00351544217937,0.00140621177833,0.000936892742471
1580310897906202909,0.00281224902374,0.00281224902374,-0.00281085276034
1580310897906209290,0.000703018622703,0.00210923040104,0.0
1580310897906219131,-0.000703018622703,0.00210923040104,0.00140533911371
1580310897906226313,-0.00105452793405,0.000703018622703,0.00187378548494
1580310897915313876,0.000351509311352,0.00140621177833,0.0
1580310897915329652,0.00105452793405,0.00105452793405,-0.000234223185618
1580310897915336376,0.00105452793405,0.0,0.000234223185618
1580310897921688245,-0.00316375833509,-0.00105452793405,-0.000702669556853
1580310897921706767,-0.00492147942477,-0.00175772108968,-0.0023424063891
1580310897927124811,-0.00316375833509,0.000703018622703,0.000468446371235
1580310897927134694,0.0,0.00246073971239,-0.00374774550281
1580310897949245794,-0.000703018622703,0.0,-0.0049188614309
1580310897949266864,-0.00210923040104,0.0,0.0
1580310897949281272,0.0,-0.00105452793405,0.00140533911371
1580310897949291116,-0.00105452793405,-0.00210923040104,0.0
1580310897958777164,0.00140621177833,0.000351509311352,0.000702669556853
1580310897958788923,0.00246073971239,0.000351509311352,0.00210818320348
1580310897958843697,0.00105452793405,0.00210923040104,-0.000702669556853
1580310897966336816,-0.00421846080207,0.0,-0.00445041505966
1580310897966362214,-0.000351509311352,0.0,0.0
1580310897972525198,0.0,0.00351544217937,0.00210818320348
1580310897972556962,0.00140621177833,0.00246073971239,-0.000936892742471
1580310897991943628,-0.00175772108968,0.00175772108968,-0.00187378548494
1580310897991962439,0.0,0.00175772108968,-0.00374774550281
1580310897991982409,0.0,-0.00105452793405,-0.00304507594595
1580310897992019442,-0.000703018622703,0.0,0.000234223185618
1580310898000749533,-0.00421846080207,0.00175772108968,0.00421619187404
1580310898000769620,-0.00351544217937,0.0,0.000936892742471
1580310898009835351,-0.00105452793405,0.00246073971239,-0.00140533911371
1580310898009854986,-0.00175772108968,0.00210923040104,0.00140533911371
1580310898009869658,-0.00421846080207,0.00281224902374,0.00117111592809
1580310898013894440,-0.00421846080207,0.00351544217937,0.0023424063891
1580310898013938450,0.00140621177833,0.00105452793405,0.00374774550281
1580310898019561187,0.0,0.00246073971239,0.0023424063891
1580310898027691358,0.0,0.00281224902374,0.000936892742471
1580310898027710689,0.00140621177833,0.00597618189175,0.0
1580310898032665902,0.0,0.00281224902374,0.000468446371235
1580310898038903857,-0.00456997011342,0.00140621177833,0.000936892742471
1580310898038947970,-0.00105452793405,0.0056246725804,0.000234223185618
1580310898044733936,-0.00210923040104,0.00316375833509,-0.000234223185618
1580310898055078000,-0.000351509311352,-0.000351509311352,0.00421619187404
1580310898055088327,0.00281224902374,0.00175772108968,0.00468463824528
1580310898055128764,-0.000703018622703,0.0,0.00117111592809
1580310898068620846,0.0,0.00386695149072,-0.00304507594595
1580310898068702614,-0.00281224902374,0.0056246725804,-0.00117111592809
1580310898077749248,-0.00210923040104,0.00351544217937,0.00163956229932
1580310898077769662,-0.00281224902374,0.00210923040104,0.0
1580310898077779193,-0.00210923040104,-0.000703018622703,-0.00327929913157
1580310898085506565,-0.000703018622703,-0.00246073971239,0.00468463824528
1580310898085527871,-0.00456997011342,-0.00210923040104,0.00468463824528
1580310898093294442,-0.00246073971239,-0.00386695149072,0.00398196868843
1580310898093315230,-0.00316375833509,0.00281224902374,0.00562153098775
1580310898113240497,-0.00210923040104,0.00210923040104,0.00585575417337
1580310898113250396,-0.00175772108968,-0.00175772108968,0.00351352231719
1580310898113258278,-0.00140621177833,0.0,0.000468446371235
1580310898113266774,-0.00421846080207,0.00175772108968,-0.000468446371235
1580310898120049815,-0.000351509311352,0.00456997011342,0.000702669556853
1580310898120084518,-0.00210923040104,0.00281224902374,0.00210818320348
1580310898120094975,-0.00456997011342,0.00456997011342,-0.00163956229932
1580310898124302786,-0.00281224902374,0.00140621177833,-0.00538730780213
1580310898129464793,0.00105452793405,0.00281224902374,-0.00398196868843
1580310898129544978,0.000351509311352,0.00281224902374,-0.00140533911371
1580310898134847268,-0.00175772108968,-0.00386695149072,-0.00187378548494
1580310898144778317,0.00456997011342,-0.00527298873613,-0.00257662957472
1580310898155133409,0.00386695149072,-0.00246073971239,-0.000702669556853
1580310898155187085,0.00281224902374,-0.00210923040104,0.00163956229932
1580310898155240951,0.000351509311352,0.00210923040104,0.000468446371235
1580310898163441045,0.00246073971239,-0.00140621177833,0.00163956229932
1580310898163464169,-0.00316375833509,-0.00175772108968,0.00210818320348
1580310898174263307,-0.00527298873613,-0.00246073971239,0.000234223185618
1580310898174275598,-0.00140621177833,-0.00140621177833,-0.00257662957472
1580310898174294952,0.00140621177833,-0.000351509311352,-0.000234223185618
1580310898182171404,-0.000703018622703,-0.000351509311352,0.00163956229932
1580310898182280189,-0.00316375833509,0.000703018622703,0.00210818320348
1580310898188265115,-0.00281224902374,-0.00210923040104,0.00374774550281
1580310898188284728,-0.00246073971239,-0.000703018622703,0.0
1580310898208212043,-0.00175772108968,0.00527298873613,-0.00351352231719
1580310898208234129,0.00140621177833,0.00246073971239,-0.000234223185618
1580310898208312801,0.0,0.00492147942477,0.00163956229932
1580310898208398544,-0.00281224902374,0.00527298873613,0.00163956229932
1580310898213500269,-0.00246073971239,0.00175772108968,0.00515308461651
1580310898213527504,-0.00843692160414,0.00105452793405,0.00445041505966
1580310898213538479,-0.00421846080207,-0.00210923040104,0.0049188614309
1580310898218094471,-0.00492147942477,-0.00140621177833,0.0
1580310898224912886,-0.00140621177833,-0.00105452793405,0.00445041505966
1580310898231086507,0.00246073971239,0.0,0.00257662957472
1580310898231129440,0.0,-0.000351509311352,0.00187378548494
1580310898240295505,-0.00456997011342,0.0,0.00163956229932
1580310898240309550,-0.00421846080207,0.00140621177833,0.000702669556853
1580310898256817045,-0.00386695149072,-0.00210923040104,0.000468446371235
1580310898256842332,-0.000351509311352,0.00316375833509,0.00257662957472
1580310898256853586,-0.00386695149072,0.00246073971239,0.00140533911371
1580310898256871140,-0.00738221913716,0.00140621177833,-0.00210818320348
1580310898276767185,-0.00703070982581,0.0,0.0
1580310898276820836,-0.00632769120311,0.00105452793405,-0.000468446371235
1580310898276841903,-0.00386695149072,0.000351509311352,-0.000936892742471
1580310898287513955,0.00105452793405,0.00210923040104,0.00515308461651
1580310898287544727,0.000703018622703,-0.000703018622703,0.00351352231719
1580310898287555093,-0.00210923040104,-0.00105452793405,-0.000468446371235
1580310898287610420,0.00175772108968,-0.000703018622703,-0.000468446371235
1580310898305702564,0.00175772108968,0.0,0.00398196868843
1580310898305711388,0.000351509311352,0.00351544217937,0.00187378548494
1580310898305774951,-0.00386695149072,0.000703018622703,0.0
1580310898316293071,-0.00351544217937,0.00175772108968,0.000468446371235
1580310898316306021,-0.00281224902374,0.00316375833509,-0.000234223185618
1580310898316323913,-0.000351509311352,0.00175772108968,-0.000936892742471
1580310898316365791,0.0,-0.00140621177833,0.00187378548494
1580310898325171330,0.00351544217937,0.00105452793405,0.0
1580310898325366640,0.00527298873613,0.000703018622703,0.000936892742471
1580310898325410599,-0.00105452793405,0.00175772108968,-0.000702669556853
1580310898332706905,-0.00210923040104,0.00105452793405,-0.00327929913157
1580310898332732443,0.00246073971239,-0.00316375833509,-0.00304507594595
1580310898340754159,0.00456997011342,-0.00105452793405,0.00140533911371
1580310898340769556,-0.00140621177833,0.00105452793405,-0.00140533911371
1580310898361122497,-0.00351544217937,-0.00105452793405,-0.00210818320348
1580310898361149455,0.000703018622703,-0.000703018622703,-0.0023424063891
1580310898361185783,0.00316375833509,0.00281224902374,-0.00187378548494
1580310898361217881,-0.000703018622703,0.00175772108968,-0.000936892742471
1580310898370602678,-0.00878843091549,0.00140621177833,0.000468446371235
1580310898370620353,-0.00386695149072,0.0,0.00117111592809
1580310898370640840,-0.00386695149072,0.00246073971239,0.00210818320348
1580310898377309374,0.0,0.0,0.000234223185618
1580310898377337574,0.00316375833509,0.0,-0.0023424063891
1580310898382161436,0.00105452793405,0.0,-0.00515308461651
1580310898382224519,-0.000351509311352,-0.00105452793405,-0.00538730780213
1580310898405509055,0.000703018622703,-0.000703018622703,0.00117111592809
1580310898405525905,0.0,0.00105452793405,-0.00187378548494
1580310898405551741,0.00105452793405,0.00351544217937,-0.00421619187404
1580310898405562734,-0.00703070982581,0.00105452793405,-0.00351352231719
1580310898413710825,-0.00421846080207,-0.00316375833509,0.000936892742471
1580310898413727504,-0.00140621177833,-0.00351544217937,0.00163956229932
1580310898413759798,-0.00421846080207,-0.00281224902374,0.000468446371235
1580310898418938429,-0.000703018622703,0.000351509311352,-0.00210818320348
1580310898418993950,-0.00175772108968,0.000351509311352,-0.00117111592809
1580310898429156670,-0.00386695149072,-0.00351544217937,-0.00163956229932
1580310898434013579,-0.00386695149072,0.00105452793405,0.00421619187404
1580310898434319402,-0.00140621177833,0.0,0.00421619187404
1580310898434334213,-0.00316375833509,0.000351509311352,-0.00327929913157
1580310898440338794,-0.00175772108968,0.00351544217937,-0.00327929913157
1580310898448361304,0.000703018622703,0.000351509311352,0.00140533911371
1580310898448411561,0.00351544217937,0.0056246725804,0.00163956229932
1580310898452748826,0.00597618189175,0.0119521892506,0.000702669556853
1580310898464773500,0.00456997011342,0.0056246725804,-0.00140533911371
1580310898464782981,-0.00210923040104,0.00105452793405,-0.00351352231719
1580310898464792160,-0.00281224902374,-0.00281224902374,-0.00562153098775
1580310898475877372,-0.00105452793405,-0.00386695149072,-0.00210818320348
1580310898475907905,-0.00105452793405,-0.00210923040104,0.00187378548494
1580310898485639158,-0.000703018622703,-0.000703018622703,0.0023424063891
1580310898485652476,-0.00210923040104,-0.00351544217937,0.00351352231719
1580310898485750695,-0.00281224902374,-0.00632769120311,0.000468446371235
1580310898496733550,-0.00105452793405,0.0,0.00117111592809
1580310898496743857,-0.00140621177833,0.000703018622703,0.0023424063891
1580310898507205510,-0.00105452793405,-0.00105452793405,-0.000936892742471
1580310898507218451,-0.00210923040104,-0.00421846080207,-0.00140533911371
1580310898507275926,-0.00386695149072,-0.00210923040104,-0.00187378548494
1580310898517710945,0.000351509311352,0.00140621177833,-0.00163956229932
1580310898517718923,0.00210923040104,0.00351544217937,-0.00163956229932
1580310898517726160,0.00281224902374,0.0,0.00327929913157
1580310898540382596,0.00246073971239,-0.00421846080207,-0.00140533911371
1580310898540394396,-0.00316375833509,-0.00386695149072,-0.00210818320348
1580310898540411609,-0.00386695149072,-0.000703018622703,-0.00468463824528
1580310898540422641,-0.00246073971239,-0.00246073971239,0.000702669556853
1580310898555248853,-0.00175772108968,0.00105452793405,0.00398196868843
1580310898555255581,-0.00456997011342,-0.000703018622703,0.00304507594595
1580310898555261197,-0.00386695149072,-0.00316375833509,0.00421619187404
1580310898555269486,-0.00140621177833,-0.00386695149072,0.00398196868843
1580310898555274718,-0.000703018622703,-0.00175772108968,0.0023424063891
1580310898563728271,-0.00421846080207,-0.00246073971239,0.000936892742471
1580310898563776991,0.00105452793405,-0.00456997011342,0.00281085276034
1580310898573578365,0.000703018622703,-0.00175772108968,-0.00117111592809
1580310898573590272,-0.00210923040104,0.00105452793405,0.0
1580310898573620803,0.00667920051446,0.000351509311352,0.0
1580310898582642768,0.00281224902374,0.00527298873613,-0.00538730780213
1580310898582701249,-0.00175772108968,0.00386695149072,-0.00679282144876
1580310898589601520,-0.00105452793405,0.00175772108968,-0.00702704463438
1580310898589608528,0.000703018622703,0.00105452793405,-0.00163956229932
1580310898607712235,-0.00597618189175,0.00316375833509,0.000468446371235
1580310898607721992,-0.00527298873613,0.00105452793405,0.00304507594595
1580310898607735406,-0.00140621177833,-0.00316375833509,-0.00117111592809
1580310898607770902,0.000351509311352,0.0,-0.0023424063891
1580310898618040883,0.0,-0.00140621177833,-0.0023424063891
1580310898618055513,0.000351509311352,0.0,0.00281085276034
1580310898618111373,0.00386695149072,0.0,0.000234223185618
1580310898625772845,0.00281224902374,0.000351509311352,0.00281085276034
1580310898625801928,0.000703018622703,0.00140621177833,0.00140533911371
1580310898632850973,-0.00175772108968,0.00281224902374,-0.00187378548494
1580310898632873374,-0.00105452793405,0.00246073971239,-0.00351352231719
1580310898653511928,0.00492147942477,0.00210923040104,-0.0023424063891
1580310898653535251,0.00281224902374,0.000351509311352,0.00117111592809
1580310898653545391,0.00667920051446,-0.000703018622703,0.00257662957472
1580310898653578052,0.00527298873613,0.0,0.000702669556853
1580310898663471947,0.00527298873613,-0.00316375833509,0.000936892742471
1580310898663531215,0.00246073971239,-0.00632769120311,-0.000702669556853
1580310898673177086,0.0,-0.00632769120311,0.00117111592809
1580310898673203885,-0.000703018622703,0.00316375833509,-0.00140533911371
1580310898673212960,-0.00140621177833,0.000703018622703,-0.00327929913157
1580310898673243619,0.00105452793405,0.000703018622703,-0.00281085276034
1580310898680753231,0.00456997011342,0.00246073971239,-0.00140533911371
1580310898680834085,0.0,0.000703018622703,-0.000936892742471
1580310898684707724,-0.00140621177833,-0.000703018622703,0.000936892742471
1580310898684746332,0.00210923040104,0.00386695149072,-0.00187378548494
1580310898710958745,0.00105452793405,0.00351544217937,0.00327929913157
1580310898710976506,0.0,0.000351509311352,0.0049188614309
1580310898710991220,0.00281224902374,0.0,0.000234223185618
1580310898711010585,0.00105452793405,-0.00210923040104,-0.00327929913157
1580310898720341588,0.000351509311352,-0.00281224902374,-0.00304507594595
1580310898720371938,0.00316375833509,-0.00386695149072,-0.000936892742471
1580310898720381841,0.0,-0.00281224902374,-0.00327929913157
1580310898720513736,0.0,-0.000703018622703,-0.00117111592809
1580310898724776147,-0.00386695149072,0.00140621177833,0.0
1580310898731308763,-0.00281224902374,0.00527298873613,-0.00163956229932
1580310898738863856,0.0,0.00492147942477,0.000234223185618
1580310898738895590,-0.00210923040104,0.00386695149072,0.0
1580310898745208304,-0.000351509311352,0.00140621177833,-0.00140533911371
1580310898745218200,0.00456997011342,0.0,-0.00257662957472
1580310898765659257,0.00316375833509,-0.000351509311352,-0.00117111592809
1580310898765671802,0.00316375833509,0.00175772108968,0.000468446371235
1580310898765691161,0.00597618189175,0.00281224902374,-0.00398196868843
1580310898765703127,-0.00105452793405,-0.00246073971239,0.000936892742471
1580310898774398716,0.000703018622703,0.000703018622703,-0.0023424063891
1580310898774429277,-0.00105452793405,0.00210923040104,0.000702669556853
1580310898774441637,0.00175772108968,0.000351509311352,0.00304507594595
1580310898782401726,0.000703018622703,0.00210923040104,-0.000234223185618
1580310898782420463,-0.00105452793405,0.00175772108968,-0.00304507594595
1580310898792585285,0.00140621177833,0.0,-0.00163956229932
1580310898792603132,-0.00140621177833,0.0,0.00281085276034
1580310898810322116,0.0,0.00492147942477,0.00304507594595
1580310898810334853,0.00175772108968,0.00527298873613,0.00374774550281
1580310898810372756,0.000351509311352,-0.00456997011342,0.00374774550281
1580310898810425225,0.000703018622703,-0.00316375833509,0.00187378548494
1580310898817665433,0.000703018622703,0.00246073971239,-0.000936892742471
1580310898817673962,0.0,0.00175772108968,-0.000702669556853
1580310898817721903,0.00316375833509,0.00386695149072,-0.000234223185618
1580310898825019289,0.00210923040104,-0.000351509311352,0.0023424063891
1580310898825031090,0.00175772108968,-0.00105452793405,-0.00210818320348
1580310898832825006,0.00281224902374,0.000351509311352,-0.00140533911371
1580310898838661923,0.00140621177833,0.00492147942477,-0.000702669556853
1580310898838702343,-0.00210923040104,0.00140621177833,0.0
1580310898844365874,-0.00210923040104,0.00210923040104,-0.0023424063891
1580310898844374983,-0.00456997011342,-0.00105452793405,0.00117111592809
1580310898862228624,-0.00140621177833,-0.00246073971239,-0.000702669556853
1580310898862237221,0.00281224902374,-0.00140621177833,0.00304507594595
1580310898862245886,0.00386695149072,0.00210923040104,0.00327929913157
1580310898862253159,0.0,-0.00105452793405,0.000234223185618
1580310898870237018,-0.000351509311352,0.00105452793405,0.000936892742471
1580310898870292361,0.000351509311352,0.00281224902374,0.00327929913157
1580310898876822504,0.00351544217937,0.00386695149072,0.00421619187404
1580310898876846299,0.00105452793405,0.00492147942477,0.00327929913157
1580310898880844083,0.00140621177833,0.00140621177833,0.00351352231719
1580310898886693570,-0.00105452793405,-0.00105452793405,0.00281085276034
1580310898886742282,0.00140621177833,-0.00105452793405,0.00304507594595
1580310898895050616,-0.00210923040104,-0.000351509311352,-0.000936892742471
1580310898902159317,-0.00105452793405,0.00386695149072,-0.0023424063891
1580310898902195587,0.0,0.000351509311352,0.000702669556853
1580310898909055094,-0.00140621177833,-0.00386695149072,0.00163956229932
1580310898909074185,0.0,-0.000351509311352,-0.000702669556853
1580310898925740913,0.00210923040104,0.00281224902374,0.000234223185618
1580310898925749626,-0.00105452793405,0.00492147942477,-0.00163956229932
1580310898925897815,-0.00456997011342,0.000351509311352,-0.00257662957472
1580310898925908766,-0.00456997011342,-0.00316375833509,-0.00398196868843
1580310898933192020,-0.00527298873613,0.000703018622703,-0.00374774550281
1580310898933214684,-0.00421846080207,0.000703018622703,-0.00327929913157
1580310898938822210,-0.000351509311352,0.0,-0.00351352231719
1580310898938846951,-0.00316375833509,-0.00281224902374,-0.00163956229932
1580310898944523545,-0.00281224902374,0.0,0.00327929913157
1580310898952674444,0.000351509311352,0.00105452793405,0.00140533911371
1580310898952718834,0.00210923040104,0.0056246725804,-0.000936892742471
1580310898960920392,0.00140621177833,0.00351544217937,0.000702669556853
1580310898960944384,0.0,-0.000351509311352,0.0
1580310898977348294,-0.00175772108968,-0.00175772108968,0.0023424063891
1580310898977382175,-0.000351509311352,-0.00140621177833,0.00163956229932
1580310898977403598,-0.00105452793405,0.00140621177833,0.0023424063891
1580310898977422171,-0.00492147942477,0.00386695149072,0.00398196868843
1580310898980409416,-0.00210923040104,0.00527298873613,0.00210818320348
1580310898980447804,0.0,0.0,0.000702669556853
1580310898986303222,0.00105452793405,0.00246073971239,0.000936892742471
1580310899007317374,0.00386695149072,0.00492147942477,0.0
1580310899007348712,0.00105452793405,0.00281224902374,0.00374774550281
1580310899013880593,0.00140621177833,-0.00140621177833,0.00117111592809
1580310899013896467,0.00246073971239,-0.00281224902374,-0.000936892742471
1580310899013905135,0.000351509311352,0.00281224902374,-0.00210818320348
1580310899013960348,-0.00316375833509,-0.00175772108968,-0.00281085276034
1580310899027391964,-0.00421846080207,0.0,-0.00163956229932
1580310899027399884,-0.00456997011342,-0.00246073971239,-0.00117111592809
1580310899030854045,-0.00527298873613,-0.00210923040104,0.00117111592809
1580310899030869765,-0.00281224902374,-0.00105452793405,0.00257662957472
1580310899030900080,-0.00105452793405,0.0,0.00163956229932
1580310899036877147,-0.00210923040104,-0.000351509311352,0.000468446371235
1580310899042255413,-0.0056246725804,-0.000703018622703,-0.000234223185618
1580310899042293013,-0.00632769120311,0.0,-0.00210818320348
1580310899049634828,0.0,-0.000351509311352,-0.00257662957472
1580310899056449511,0.0,0.00351544217937,-0.00468463824528
1580310899056483966,0.00281224902374,0.00527298873613,-0.00538730780213
1580310899064368248,-0.000351509311352,0.00105452793405,-0.00398196868843
1580310899064383496,-0.00281224902374,-0.00175772108968,-0.00398196868843
1580310899082556024,-0.00140621177833,-0.000703018622703,-0.00421619187404
1580310899082572693,0.00210923040104,0.00421846080207,-0.00117111592809
1580310899082596818,0.00175772108968,0.00421846080207,0.000234223185618
1580310899082606921,-0.00175772108968,0.00210923040104,0.0
1580310899093601545,-0.000351509311352,0.0,0.0023424063891
1580310899093617971,0.00140621177833,-0.00105452793405,-0.000234223185618
1580310899093645595,0.00456997011342,0.00316375833509,0.0
1580310899104020381,-0.000351509311352,0.00210923040104,-0.00374774550281
1580310899104042119,-0.00140621177833,0.0,0.0
1580310899108585237,-0.000703018622703,-0.00210923040104,-0.00351352231719
1580310899108608709,0.000351509311352,-0.00492147942477,0.00187378548494
1580310899129394341,0.00175772108968,-0.00527298873613,0.00187378548494
1580310899129413831,0.00246073971239,-0.000703018622703,0.000936892742471
1580310899129423993,-0.000703018622703,-0.00175772108968,-0.000702669556853
1580310899129457802,-0.000703018622703,0.0,-0.00468463824528
1580310899137036614,-0.00105452793405,-0.000351509311352,-0.00304507594595
1580310899137064096,0.00175772108968,0.00175772108968,-0.00117111592809
1580310899137093285,0.00246073971239,0.00210923040104,-0.00187378548494
1580310899143045810,0.000351509311352,0.00140621177833,0.00187378548494
1580310899143062769,-0.000703018622703,0.0,0.00117111592809
1580310899147069297,0.00140621177833,-0.00175772108968,-0.00304507594595
1580310899156726251,0.00105452793405,0.00175772108968,-0.00163956229932
1580310899164962912,-0.00351544217937,0.00316375833509,-0.000702669556853
1580310899164991502,-0.00246073971239,0.00456997011342,-0.000234223185618
1580310899165022202,-0.00492147942477,-0.00386695149072,0.00163956229932
1580310899177090373,-0.00246073971239,-0.00281224902374,-0.000234223185618
1580310899177126536,0.00105452793405,0.000351509311352,-0.00398196868843
1580310899187586714,0.00210923040104,0.00175772108968,0.000468446371235
1580310899187597829,-0.00210923040104,0.000703018622703,0.00374774550281
1580310899187665321,0.00140621177833,-0.000351509311352,-0.000936892742471
1580310899197954163,-0.00140621177833,0.0,0.000936892742471
1580310899198031822,0.000351509311352,-0.000703018622703,0.00117111592809
1580310899207121314,-0.00246073971239,0.000351509311352,-0.00117111592809
1580310899207129421,-0.00281224902374,0.000351509311352,-0.00585575417337
1580310899207161137,-0.00316375833509,-0.00105452793405,-0.00538730780213
1580310899216652327,-0.000351509311352,0.000703018622703,-0.000468446371235
1580310899216661364,-0.000703018622703,-0.00175772108968,-0.00187378548494
1580310899216668375,0.00246073971239,0.00421846080207,-0.00210818320348
1580310899234871667,0.0,-0.00210923040104,-0.00374774550281
1580310899234896245,-0.000703018622703,-0.00281224902374,0.000702669556853
1580310899234916174,-0.00456997011342,0.0,-0.000234223185618
1580310899234935006,-0.00667920051446,0.0,0.00163956229932
1580310899244594538,-0.00140621177833,-0.000351509311352,0.00726126782
1580310899244601189,0.00210923040104,-0.00316375833509,0.00421619187404
1580310899244614560,0.00175772108968,-0.00140621177833,0.00281085276034
1580310899254835609,0.00386695149072,-0.00386695149072,-0.00163956229932
1580310899254865505,0.00246073971239,0.00105452793405,-0.00608997735898
1580310899264801244,0.00175772108968,0.00105452793405,-0.00210818320348
1580310899264812576,0.0,-0.00210923040104,0.00398196868843
1580310899283389706,-0.000703018622703,-0.00210923040104,-0.000936892742471
1580310899283399918,0.0,0.0,-0.00281085276034
1580310899283408372,-0.00246073971239,0.00140621177833,0.000234223185618
1580310899283438717,-0.00492147942477,0.00281224902374,-0.00163956229932
1580310899296796222,-0.00421846080207,0.000703018622703,-0.0023424063891
1580310899296807900,-0.00246073971239,0.0,-0.0023424063891
1580310899296818303,-0.00281224902374,-0.00351544217937,0.00421619187404
1580310899296872385,-0.00210923040104,-0.000351509311352,0.00445041505966
1580310899302719010,-0.000703018622703,0.00175772108968,0.00421619187404
1580310899302734333,-0.00175772108968,-0.00105452793405,0.000936892742471
1580310899302752886,-0.000703018622703,-0.00175772108968,0.000234223185618
1580310899307365140,-0.00175772108968,-0.000351509311352,-0.00140533911371
1580310899311146906,0.00316375833509,0.000703018622703,0.00117111592809
1580310899314536160,-0.00105452793405,-0.000351509311352,-0.00140533911371
1580310899318075091,-0.000351509311352,-0.000703018622703,-0.00398196868843
1580310899321728621,0.00281224902374,-0.00316375833509,-0.00187378548494
1580310899326796683,-0.000351509311352,-0.00246073971239,0.00117111592809
1580310899333768334,0.0,0.0,0.00210818320348
1580310899338672524,-0.00246073971239,0.0,-0.00117111592809
1580310899338689129,-0.00667920051446,0.00210923040104,-0.00281085276034
1580310899342592343,-0.00210923040104,0.0,-0.00140533911371
1580310899350012517,-0.00632769120311,0.0,-0.00398196868843
1580310899355340987,0.00105452793405,-0.00316375833509,-0.00445041505966
1580310899355391299,0.00175772108968,-0.000703018622703,-0.00281085276034
1580310899359504624,0.00105452793405,-0.00105452793405,-0.00210818320348
1580310899366220423,-0.00246073971239,-0.00281224902374,0.00163956229932
1580310899366256222,0.00140621177833,-0.00105452793405,0.0
1580310899372263760,0.00246073971239,-0.00210923040104,-0.000468446371235
1580310899379274338,-0.000703018622703,-0.00456997011342,-0.000468446371235
1580310899387412273,-0.00351544217937,-0.00527298873613,0.0
1580310899387434598,-0.00246073971239,-0.00421846080207,-0.00140533911371
1580310899387535445,-0.00246073971239,-0.00105452793405,0.00163956229932
1580310899393358387,-0.000703018622703,-0.000703018622703,0.00257662957472
1580310899398544644,-0.000351509311352,0.00246073971239,0.00585575417337
1580310899398574235,0.00527298873613,0.00386695149072,0.00374774550281
1580310899406555319,0.000703018622703,0.00316375833509,0.00351352231719
1580310899413586445,0.00316375833509,0.00140621177833,0.00187378548494
1580310899413615007,0.00140621177833,0.00105452793405,0.00140533911371
1580310899420815562,0.0,0.00246073971239,-0.00327929913157
1580310899420831336,0.00175772108968,0.0,-0.00421619187404
1580310899438931097,-0.00105452793405,-0.00105452793405,0.000468446371235
1580310899438947575,0.00175772108968,-0.000703018622703,-0.00187378548494
1580310899438959169,0.00527298873613,0.00210923040104,-0.00281085276034
1580310899438980190,0.00597618189175,0.00140621177833,-0.00351352231719
1580310899445756239,0.00175772108968,0.000703018622703,-0.000468446371235
1580310899445850891,0.0,-0.00316375833509,-0.00304507594595
1580310899455188185,0.00246073971239,-0.00386695149072,-0.000936892742471
1580310899455235427,0.00281224902374,-0.00175772108968,0.00163956229932
1580310899466255983,-0.000703018622703,-0.00105452793405,0.000234223185618
1580310899466281785,-0.000703018622703,-0.00210923040104,-0.0023424063891
1580310899466293291,0.0,-0.00281224902374,0.0
1580310899473573423,0.00281224902374,-0.00632769120311,0.00117111592809
1580310899473596048,0.0,-0.00246073971239,0.0
1580310899482883588,0.0,0.0,0.00140533911371
1580310899482897113,-0.00351544217937,-0.00421846080207,0.0023424063891
1580310899500572515,-0.00456997011342,0.00210923040104,-0.00117111592809
1580310899500626973,-0.00421846080207,-0.00140621177833,0.000936892742471
1580310899500641093,0.00316375833509,-0.00527298873613,-0.000702669556853
1580310899500651261,-0.000351509311352,0.000703018622703,0.000234223185618
1580310899516319410,-0.00421846080207,-0.00140621177833,0.000936892742471
1580310899516346100,-0.00421846080207,-0.00386695149072,0.0023424063891
1580310899516381528,-0.00105452793405,-0.00140621177833,0.000936892742471
1580310899525658340,0.00140621177833,0.00105452793405,-0.00187378548494
1580310899525664532,0.000703018622703,0.00316375833509,0.000468446371235
1580310899525686984,-0.00456997011342,0.000351509311352,-0.000234223185618
1580310899534076252,-0.00246073971239,-0.000351509311352,0.0
1580310899534084213,-0.00140621177833,-0.00386695149072,-0.000702669556853
1580310899534158762,0.000703018622703,-0.00316375833509,-0.0023424063891
1580310899551781285,-0.00140621177833,-0.00316375833509,-0.0023424063891
1580310899551792959,-0.00175772108968,0.000351509311352,-0.00327929913157
1580310899551805676,0.0,0.00140621177833,-0.00538730780213
1580310899551812928,0.0,-0.00492147942477,-0.000936892742471
1580310899559186172,0.00105452793405,-0.00386695149072,-0.000468446371235
1580310899559195643,0.00246073971239,-0.00105452793405,0.00117111592809
1580310899559225308,0.00210923040104,-0.00351544217937,-0.00257662957472
1580310899563509974,-0.000703018622703,-0.00210923040104,-0.00163956229932
1580310899568858426,-0.00281224902374,-0.00281224902374,0.000234223185618
1580310899578157308,0.000351509311352,0.00105452793405,0.00163956229932
1580310899578183512,0.000351509311352,0.000703018622703,0.00445041505966
1580310899587889352,0.00140621177833,0.00140621177833,0.00445041505966
1580310899587903516,-0.00105452793405,-0.00246073971239,0.00421619187404
1580310899604515610,-0.000351509311352,-0.000703018622703,0.00140533911371
1580310899604530404,0.00351544217937,0.000703018622703,-0.000936892742471
1580310899604549179,0.00175772108968,0.00281224902374,-0.000702669556853
1580310899604581205,-0.000703018622703,-0.00210923040104,-0.00140533911371
1580310899610558320,-0.00246073971239,-0.00175772108968,-0.000468446371235
1580310899610576694,0.000351509311352,0.0,-0.00281085276034
1580310899610586196,0.00105452793405,-0.000351509311352,-0.00562153098775
1580310899620920081,0.00246073971239,0.00175772108968,0.0
1580310899628726298,0.000351509311352,-0.00386695149072,0.00327929913157
1580310899628759298,0.0,-0.00140621177833,0.0023424063891
1580310899641939969,0.00175772108968,-0.00316375833509,0.000234223185618
1580310899641956692,0.00175772108968,0.000703018622703,0.00187378548494
1580310899642004811,0.0,0.00316375833509,-0.0023424063891
1580310899657974271,-0.00210923040104,0.00140621177833,-0.00117111592809
1580310899658001454,-0.00140621177833,0.0,-0.000936892742471
1580310899658069730,0.00246073971239,-0.00105452793405,-0.00398196868843
1580310899671312275,0.00140621177833,0.00175772108968,-0.000234223185618
1580310899671330926,0.0,0.00105452793405,0.0023424063891
1580310899671348209,0.0,-0.00421846080207,-0.000468446371235
1580310899671373888,-0.000703018622703,0.00175772108968,0.00117111592809
1580310899683328067,0.0,0.00246073971239,-0.00655859826314
1580310899683366916,0.00105452793405,0.00351544217937,-0.00445041505966
1580310899683385407,0.00105452793405,0.00210923040104,0.000234223185618
1580310899683427083,0.000351509311352,0.00456997011342,-0.0023424063891
1580310899701678712,-0.00527298873613,0.00210923040104,-0.00163956229932
1580310899701688856,-0.00105452793405,0.00281224902374,-0.000936892742471
1580310899701698034,0.0,0.000703018622703,0.000702669556853
1580310899701739120,0.00492147942477,0.00246073971239,-0.00445041505966
1580310899712579423,-0.00140621177833,0.00175772108968,-0.00421619187404
1580310899712591579,0.00316375833509,-0.00105452793405,-0.000936892742471
1580310899712640703,0.00456997011342,0.0,-0.00163956229932
1580310899720771117,0.00210923040104,-0.00140621177833,-0.000468446371235
1580310899720782112,-0.00140621177833,-0.00140621177833,-0.00117111592809
1580310899720791855,0.00175772108968,-0.00421846080207,-0.00117111592809
1580310899741994704,0.00175772108968,-0.00316375833509,0.000234223185618
1580310899742003249,0.000351509311352,-0.00105452793405,-0.000936892742471
1580310899742039258,0.00246073971239,0.00246073971239,0.00140533911371
1580310899742052260,0.00175772108968,0.00281224902374,-0.00398196868843
1580310899747351518,0.00140621177833,-0.000351509311352,-0.00374774550281
1580310899747370289,0.000351509311352,0.00492147942477,-0.00562153098775
1580310899747394376,0.00105452793405,0.00210923040104,-0.000468446371235
1580310899753203618,0.00140621177833,0.00140621177833,0.000468446371235
1580310899760691151,0.00281224902374,-0.00105452793405,-0.00117111592809
1580310899760734945,-0.000703018622703,-0.00386695149072,-0.000702669556853
1580310899771971900,-0.00246073971239,-0.00492147942477,0.00210818320348
1580310899772011281,0.00105452793405,-0.00597618189175,0.0
1580310899789211553,0.000703018622703,0.0,0.00210818320348
1580310899789222758,0.00527298873613,0.00140621177833,0.00187378548494
1580310899789229805,-0.00105452793405,0.000351509311352,0.00117111592809
1580310899789246365,0.0,0.000351509311352,0.00327929913157
1580310899799152281,-0.00281224902374,-0.000703018622703,-0.00187378548494
1580310899799182531,0.000351509311352,0.00351544217937,-0.000702669556853
1580310899799193854,0.000703018622703,0.00703070982581,0.00117111592809
1580310899807397427,-0.00281224902374,0.0,0.000936892742471
1580310899807418493,-0.00281224902374,-0.00386695149072,-0.000468446371235
1580310899818487538,0.000351509311352,-0.00140621177833,0.00187378548494
1580310899818516153,0.00210923040104,0.00210923040104,0.000234223185618
1580310899833861225,0.0,0.00386695149072,-0.000936892742471
1580310899833870559,-0.00175772108968,-0.000351509311352,0.000234223185618
1580310899833877175,0.0,-0.000351509311352,0.000936892742471
1580310899833885030,0.0,0.00210923040104,0.0
1580310899840356580,0.00140621177833,0.00386695149072,-0.000702669556853
1580310899840371288,-0.00175772108968,0.0,0.00210818320348
1580310899840379101,-0.00175772108968,0.00281224902374,0.00327929913157
1580310899847040831,-0.00386695149072,0.00246073971239,-0.000468446371235
1580310899853670645,-0.00351544217937,0.00316375833509,0.00140533911371
1580310899853700525,-0.00597618189175,0.00386695149072,0.000702669556853
1580310899860008857,0.0,0.000351509311352,0.00327929913157
1580310899860046279,-0.000351509311352,-0.00105452793405,-0.000468446371235
1580310899878488881,0.00246073971239,0.0,-0.00210818320348
1580310899878497138,0.00351544217937,0.00105452793405,-0.000234223185618
1580310899878504432,0.00421846080207,0.00421846080207,0.00187378548494
1580310899878708968,0.00281224902374,0.00456997011342,0.00351352231719
1580310899886624438,0.00386695149072,0.00210923040104,0.000936892742471
1580310899886653950,-0.00246073971239,-0.00246073971239,-0.00281085276034
1580310899901812163,-0.000703018622703,0.000703018622703,-0.000702669556853
1580310899901831880,-0.000703018622703,-0.00281224902374,0.00140533911371
1580310899901886955,0.0,-0.00105452793405,0.00163956229932
1580310899909041946,-0.00316375833509,0.00175772108968,-0.00398196868843
1580310899909054312,-0.00351544217937,0.00210923040104,-0.00445041505966
1580310899909066608,0.0,-0.00140621177833,-0.00398196868843
1580310899926210620,0.00597618189175,0.00175772108968,-0.000468446371235
1580310899926218265,0.00351544217937,0.00351544217937,0.000936892742471
1580310899926225434,0.000703018622703,0.00351544217937,0.000936892742471
1580310899926234729,-0.0056246725804,-0.00140621177833,0.000702669556853
1580310899932584717,-0.00105452793405,0.00140621177833,-0.00210818320348
1580310899932612060,0.00105452793405,0.0,0.00257662957472
1580310899940369489,0.00246073971239,0.00316375833509,0.00515308461651
1580310899940414980,0.0,-0.00316375833509,0.00374774550281
1580310899944777534,0.00386695149072,0.00175772108968,0.000702669556853
1580310899951966979,0.00351544217937,0.000351509311352,0.0
1580310899957751766,0.00210923040104,-0.00246073971239,0.0
1580310899957792320,0.00316375833509,0.00105452793405,-0.00187378548494
1580310899970076649,-0.00105452793405,0.00210923040104,0.000234223185618
1580310899970087777,-0.000351509311352,-0.000703018622703,0.000468446371235
1580310899970131925,0.00140621177833,0.00140621177833,-0.00140533911371
1580310899979844506,-0.00210923040104,0.0,0.000702669556853
1580310899979856714,0.000351509311352,0.00210923040104,0.00210818320348
1580310899989305101,-0.00175772108968,-0.000351509311352,0.00562153098775
1580310899989323392,-0.00210923040104,-0.00351544217937,0.00468463824528
1580310899989352951,0.0,-0.00703070982581,0.00655859826314
1580310899996690952,0.0,-0.00316375833509,0.00374774550281
1580310899996716700,-0.00210923040104,0.0,0.00398196868843
1580310900007970070,-0.00351544217937,-0.000351509311352,0.0049188614309
1580310900007986367,-0.00456997011342,0.000351509311352,0.00327929913157
1580310900025387436,0.00175772108968,0.00246073971239,-0.00281085276034
1580310900025396885,0.00421846080207,0.00246073971239,-0.00515308461651
1580310900025401972,0.000351509311352,0.00246073971239,0.000234223185618
1580310900025406094,-0.00140621177833,-0.000351509311352,-0.00210818320348
1580310900034132419,-0.00281224902374,-0.00351544217937,0.000234223185618
1580310900034155412,-0.00527298873613,-0.00351544217937,0.000468446371235
1580310900034343538,-0.00140621177833,-0.000351509311352,-0.00187378548494
1580310900044495549,0.00105452793405,-0.00105452793405,-0.000936892742471
1580310900044509697,-0.00492147942477,-0.000703018622703,0.000234223185618
1580310900049172546,-0.00527298873613,0.000703018622703,0.00608997735898
1580310900049188075,0.00316375833509,-0.000703018622703,0.00468463824528
1580310900068622379,0.00492147942477,0.00210923040104,0.00163956229932
1580310900068636211,0.00175772108968,-0.000351509311352,0.0
1580310900068645298,0.000351509311352,-0.00105452793405,-0.00257662957472
1580310900068653012,-0.00140621177833,-0.000351509311352,-0.00187378548494
1580310900078192700,-0.00140621177833,-0.000351509311352,-0.00304507594595
1580310900078232993,-0.00527298873613,0.000351509311352,-0.00327929913157
1580310900078254106,-0.00105452793405,0.00105452793405,-0.000702669556853
1580310900097221137,0.00105452793405,0.000351509311352,-0.00140533911371
1580310900097280526,0.000703018622703,0.0,-0.00468463824528
1580310900109155463,0.000703018622703,-0.00210923040104,-0.00398196868843
1580310900109185188,0.0,-0.00105452793405,-0.00257662957472
1580310900109196748,-0.00421846080207,-0.00246073971239,0.00117111592809
1580310900109212895,-0.00808541229279,-0.00140621177833,0.00117111592809
1580310900109224933,-0.00210923040104,-0.00210923040104,0.00327929913157
1580310900121889107,-0.00105452793405,-0.000351509311352,0.00421619187404
1580310900121935798,-0.00140621177833,-0.00316375833509,0.000234223185618
1580310900121968134,-0.00386695149072,-0.000351509311352,0.00210818320348
1580310900136873715,0.0,0.000703018622703,0.000936892742471
1580310900137266911,0.000703018622703,-0.00175772108968,0.0023424063891
1580310900137291644,0.00246073971239,-0.00246073971239,-0.000234223185618
1580310900149345128,0.0,0.00175772108968,-0.00445041505966
1580310900149355219,0.0,0.00386695149072,0.000234223185618
1580310900149361846,0.0,0.00246073971239,-0.00140533911371
1580310900149371150,-0.00140621177833,-0.00316375833509,0.000468446371235
1580310900159348642,0.00175772108968,0.0,-0.000234223185618
1580310900159357412,0.00421846080207,0.00316375833509,0.0
1580310900159382012,0.00105452793405,0.00281224902374,0.00210818320348
1580310900171183516,-0.00351544217937,-0.000703018622703,-0.000234223185618
1580310900171195365,-0.00597618189175,0.00246073971239,0.000468446371235
1580310900171280714,-0.00246073971239,-0.000351509311352,0.0023424063891
1580310900181742297,0.00175772108968,-0.00210923040104,0.000702669556853
1580310900181757961,-0.00456997011342,-0.00140621177833,0.00351352231719
1580310900202345099,-0.00808541229279,-0.00351544217937,0.00398196868843
1580310900202360629,-0.00843692160414,-0.00281224902374,0.00163956229932
1580310900202432568,-0.00316375833509,0.00140621177833,-0.00257662957472
1580310900217526137,-0.00105452793405,0.00386695149072,0.00117111592809
1580310900217567094,-0.000703018622703,-0.00140621177833,-0.000234223185618
1580310900217578531,-0.000351509311352,0.00210923040104,-0.000936892742471
1580310900217587271,-0.00140621177833,0.00105452793405,0.000702669556853
1580310900222162638,-0.00105452793405,-0.000703018622703,0.000234223185618
1580310900235070566,-0.000703018622703,0.00597618189175,-0.00187378548494
1580310900235086235,-0.000351509311352,0.00316375833509,0.000936892742471
1580310900235107898,-0.0056246725804,0.0,0.0
1580310900235126138,-0.00351544217937,0.00140621177833,-0.000468446371235
1580310900236855587,0.0,0.00140621177833,0.00210818320348
1580310900245659335,0.00175772108968,0.00738221913716,-0.000936892742471
1580310900245671188,0.000351509311352,0.00386695149072,-0.00374774550281
1580310900245688336,-0.000703018622703,-0.00140621177833,0.000468446371235
1580310900245746805,-0.000351509311352,0.0,-0.00257662957472
1580310900257852240,-0.000703018622703,-0.00105452793405,-0.00257662957472
1580310900257863532,0.00175772108968,0.00281224902374,-0.00140533911371
1580310900267467051,0.00210923040104,0.00210923040104,-0.000702669556853
1580310900267482523,-0.00105452793405,0.00703070982581,0.0
1580310900267517804,-0.000351509311352,0.00105452793405,0.000234223185618
1580310900277090786,0.00105452793405,0.00105452793405,0.00187378548494
1580310900277119853,0.00105452793405,0.00210923040104,-0.000234223185618
1580310900290089623,0.000703018622703,0.00210923040104,0.00163956229932
1580310900290126628,0.00210923040104,0.00140621177833,0.00281085276034
1580310900290181606,-0.00281224902374,0.00386695149072,-0.00374774550281
1580310900303914101,-0.00351544217937,0.00105452793405,-0.0023424063891
1580310900303927740,0.00351544217937,-0.00210923040104,0.00117111592809
1580310900303940137,0.00281224902374,-0.00281224902374,0.00117111592809
1580310900303984046,0.000351509311352,-0.00105452793405,0.000702669556853
1580310900321629302,-0.000703018622703,-0.00210923040104,-0.00327929913157
1580310900321642862,-0.00210923040104,-0.00140621177833,-0.00398196868843
1580310900321703624,-0.00105452793405,-0.000703018622703,-0.00117111592809
1580310900330812377,0.00105452793405,0.000703018622703,-0.00351352231719
1580310900330819271,0.00246073971239,-0.00105452793405,-0.00374774550281
1580310900330857637,0.0,-0.000351509311352,-0.000702669556853
1580310900330896203,-0.00175772108968,-0.00210923040104,0.00140533911371
1580310900338128890,-0.00140621177833,0.00246073971239,0.000702669556853
1580310900338151358,-0.00246073971239,0.00421846080207,-0.00117111592809
1580310900345891773,-0.00703070982581,0.00527298873613,-0.000936892742471
1580310900345897341,-0.00140621177833,0.000703018622703,-0.00187378548494
1580310900363974985,-0.00246073971239,0.0,0.000468446371235
1580310900363984552,0.00105452793405,0.00105452793405,0.00257662957472
1580310900363996251,-0.000703018622703,0.0056246725804,-0.000468446371235
1580310900364017961,0.000351509311352,0.00492147942477,-0.00281085276034
1580310900369542487,0.0,0.00281224902374,0.0
1580310900369556388,-0.00281224902374,0.00281224902374,-0.00210818320348
1580310900369598861,-0.000703018622703,0.00351544217937,-0.00140533911371
1580310900373964497,0.00210923040104,0.00386695149072,-0.000702669556853
1580310900380383366,0.00210923040104,0.00140621177833,0.00187378548494
1580310900388110231,-0.00281224902374,-0.000351509311352,0.00210818320348
1580310900388125896,-0.00175772108968,-0.00175772108968,0.0
1580310900391507051,-0.00105452793405,0.00175772108968,-0.000702669556853
1580310900396892097,0.00210923040104,0.00246073971239,-0.00281085276034
1580310900404666734,-0.000351509311352,0.00421846080207,-0.00445041505966
1580310900404783048,0.000703018622703,0.00175772108968,-0.00187378548494
1580310900413941756,0.000351509311352,0.0,-0.00163956229932
1580310900413953146,0.00246073971239,0.00351544217937,-0.000936892742471
1580310900440239946,-0.00140621177833,0.00527298873613,-0.00163956229932
1580310900440259357,-0.00316375833509,0.000351509311352,0.00140533911371
1580310900440269661,-0.00316375833509,-0.000703018622703,0.00257662957472
1580310900440286610,-0.0056246725804,0.00105452793405,0.00281085276034
1580310900448522834,-0.000703018622703,0.00210923040104,0.00187378548494
1580310900448541153,0.00281224902374,0.00808541229279,0.00327929913157
1580310900448554613,0.000351509311352,0.00386695149072,0.00117111592809
