%time,field.x,field.y,field.z
1580310897418305495,-0.00610865238198,0.0012217304764,-0.0134390352404
1580310897419853900,0.0,0.00977384381117,-0.00244346095279
1580310897421779933,0.00610865238198,0.00366519142919,-0.00855211333477
1580310897423189372,0.0012217304764,0.00366519142919,-0.0134390352404
1580310897423196577,0.0012217304764,0.0158824961931,0.00244346095279
1580310897423204551,0.0012217304764,0.0,-0.00977384381117
1580310897423249576,-0.00733038285838,-0.00488692190558,-0.0256563400043
1580310897423966921,-0.0012217304764,0.0,0.00244346095279
1580310897423974776,0.0,0.00488692190558,0.00733038285838
1580310897423993814,-0.00733038285838,0.00366519142919,-0.00610865238198
1580310897423999104,-0.0146607657168,-0.00488692190558,-0.0158824961931
1580310897424008696,-0.012217304764,-0.00610865238198,-0.0146607657168
1580310897424018189,0.00610865238198,-0.00244346095279,0.0
1580310897424022938,0.0012217304764,-0.00855211333477,-0.0134390352404
1580310897424032134,-0.00733038285838,-0.00610865238198,-0.0109955742876
1580310897424037867,0.00244346095279,-0.0012217304764,-0.00488692190558
1580310897424045332,0.0,0.00244346095279,0.00244346095279
1580310897424074890,0.00733038285838,0.0134390352404,0.0109955742876
1580310897424885150,0.0146607657168,0.012217304764,0.00977384381117
1580310897424894417,0.0,-0.00366519142919,0.00488692190558
1580310897424899555,0.012217304764,-0.00366519142919,0.0012217304764
1580310897424905578,0.00977384381117,0.00244346095279,-0.00855211333477
1580310897424922404,0.00244346095279,0.00977384381117,0.0109955742876
1580310897424962255,0.00610865238198,0.0109955742876,0.00855211333477
1580310897425316084,0.0,-0.0012217304764,0.0
1580310897425772688,0.00610865238198,0.0012217304764,-0.0012217304764
1580310897426359650,-0.00366519142919,0.0,-0.0244346095279
1580310897426430874,-0.00366519142919,-0.00855211333477,0.0012217304764
1580310897426742517,0.00366519142919,0.00244346095279,0.00733038285838
1580310897426881464,0.00610865238198,0.0109955742876,0.012217304764
1580310897427368097,0.00244346095279,0.00610865238198,0.00977384381117
1580310897427388643,-0.0012217304764,0.0012217304764,-0.00366519142919
1580310897427398182,-0.00733038285838,-0.0012217304764,-0.0171042266695
1580310897427879381,-0.00488692190558,0.0,-0.00488692190558
1580310897427885293,0.00610865238198,0.00855211333477,0.00610865238198
1580310897428370629,0.0,0.00488692190558,0.0012217304764
1580310897428377876,0.00366519142919,0.00488692190558,0.0109955742876
1580310897428386014,0.0146607657168,0.00855211333477,0.00488692190558
1580310897428772099,0.0158824961931,0.00977384381117,0.0109955742876
1580310897428778466,0.012217304764,0.00733038285838,0.0158824961931
1580310897428787136,0.00488692190558,0.00488692190558,0.0109955742876
1580310897429056429,-0.00977384381117,-0.00488692190558,-0.0158824961931
1580310897429062626,0.0012217304764,0.0012217304764,0.00610865238198
1580310897429245962,0.00366519142919,0.00244346095279,0.00977384381117
1580310897429287538,0.00977384381117,0.0171042266695,0.0109955742876
1580310897429501217,0.0012217304764,0.0146607657168,0.0012217304764
1580310897429513651,0.0012217304764,-0.00610865238198,-0.00488692190558
1580310897429711461,0.0012217304764,-0.00244346095279,-0.00733038285838
1580310897429928773,-0.0012217304764,0.00488692190558,-0.00366519142919
1580310897430067887,0.00610865238198,0.00977384381117,0.0109955742876
1580310897430391208,0.00977384381117,0.012217304764,0.00977384381117
1580310897430487471,0.0,0.0109955742876,0.00855211333477
1580310897430492611,0.0,0.00610865238198,0.00610865238198
1580310897433973162,-0.00244346095279,-0.00244346095279,0.012217304764
1580310897434411543,0.00244346095279,0.0,-0.0109955742876
1580310897434461388,-0.00366519142919,0.00488692190558,-0.00488692190558
1580310897436819398,-0.00733038285838,-0.00488692190558,0.00488692190558
1580310897436961525,-0.00610865238198,-0.00855211333477,-0.00977384381117
1580310897437154703,0.00733038285838,0.00366519142919,0.0158824961931
1580310897437288180,0.00244346095279,0.00733038285838,0.00488692190558
1580310897437351623,-0.00244346095279,-0.00366519142919,0.00610865238198
1580310897437682673,-0.0109955742876,-0.012217304764,0.0
1580310897437769390,-0.00977384381117,0.00733038285838,-0.0012217304764
1580310897437820290,0.00733038285838,0.00366519142919,0.00610865238198
1580310897438293044,0.00610865238198,0.0109955742876,0.00855211333477
1580310897443993443,0.00733038285838,0.0,0.00366519142919
1580310897443998423,0.0,-0.0012217304764,-0.00366519142919
1580310897444002653,0.0,-0.0146607657168,0.0
1580310897452497187,0.0012217304764,-0.00488692190558,-0.00488692190558
1580310897452503125,-0.00366519142919,-0.00610865238198,-0.0134390352404
1580310897459024368,-0.00855211333477,-0.00855211333477,-0.0183259571459
1580310897459028387,-0.012217304764,-0.00977384381117,0.00244346095279
1580310897465453726,-0.0109955742876,-0.00244346095279,-0.0305432619099
1580310897465473450,-0.0012217304764,-0.00855211333477,-0.0207694180987
1580310897471534047,0.0,-0.00733038285838,-0.0183259571459
1580310897479805151,-0.00610865238198,-0.012217304764,-0.00733038285838
1580310897479818843,0.0,0.0,0.00855211333477
1580310897490040957,0.00610865238198,0.0012217304764,0.00488692190558
1580310897490063073,-0.00366519142919,0.0,-0.00366519142919
1580310897500169599,0.0,-0.0012217304764,-0.00977384381117
1580310897500190359,0.0,0.00733038285838,0.00733038285838
1580310897509363467,0.00610865238198,0.00610865238198,0.00366519142919
1580310897509382205,-0.00244346095279,-0.00488692190558,-0.00610865238198
1580310897509394424,-0.00855211333477,-0.0012217304764,-0.00488692190558
1580310897517050332,0.0012217304764,0.00366519142919,-0.00366519142919
1580310897517064427,-0.00488692190558,-0.00488692190558,-0.00488692190558
1580310897524824545,-0.00366519142919,0.00244346095279,-0.00855211333477
1580310897524874647,0.0012217304764,0.00366519142919,-0.00855211333477
1580310897531372039,0.0012217304764,-0.00488692190558,0.0109955742876
1580310897531395246,-0.00244346095279,-0.0012217304764,-0.0183259571459
1580310897538621662,-0.00855211333477,-0.0109955742876,-0.0109955742876
1580310897538651694,0.0012217304764,-0.0146607657168,0.00366519142919
1580310897548101682,0.00366519142919,-0.00366519142919,-0.00366519142919
1580310897548114198,-0.00244346095279,0.00855211333477,-0.0109955742876
1580310897557550330,0.00366519142919,0.00977384381117,-0.0012217304764
1580310897557564889,0.0012217304764,0.00244346095279,0.00977384381117
1580310897564363217,-0.00244346095279,-0.0109955742876,0.012217304764
1580310897564402312,-0.00244346095279,-0.00733038285838,0.0
1580310897573597937,-0.00977384381117,-0.00610865238198,-0.00366519142919
1580310897573624511,0.0012217304764,0.00488692190558,0.012217304764
1580310897578637203,-0.00488692190558,0.00366519142919,0.00733038285838
1580310897578656237,-0.0146607657168,-0.00488692190558,-0.012217304764
1580310897584745648,-0.0109955742876,-0.00488692190558,-0.0268780704807
1580310897592765726,0.00366519142919,0.00488692190558,-0.00610865238198
1580310897592779289,0.0,0.0134390352404,0.00855211333477
1580310897603466886,0.00244346095279,0.00855211333477,0.00366519142919
1580310897603478177,0.00244346095279,0.00855211333477,0.00733038285838
1580310897617863857,0.0012217304764,-0.00733038285838,0.00244346095279
1580310897617875774,0.00366519142919,-0.00488692190558,0.00610865238198
1580310897617965000,0.0012217304764,0.00488692190558,0.0
1580310897627025377,0.0012217304764,0.00366519142919,-0.00855211333477
1580310897627040014,0.0146607657168,0.00488692190558,0.00366519142919
1580310897627047479,-0.0012217304764,0.00366519142919,-0.00366519142919
1580310897627054902,-0.00733038285838,-0.00366519142919,-0.0158824961931
1580310897634105944,0.00733038285838,0.00733038285838,-0.00977384381117
1580310897634120477,0.00610865238198,0.00733038285838,0.00855211333477
1580310897640967934,0.00855211333477,0.00366519142919,0.0219911485751
1580310897645574106,0.00366519142919,0.00488692190558,0.0134390352404
1580310897645587585,0.0012217304764,0.0012217304764,-0.012217304764
1580310897652192214,0.00488692190558,-0.00244346095279,-0.00977384381117
1580310897659798865,-0.00977384381117,0.0,-0.0109955742876
1580310897659818871,-0.0171042266695,-0.00977384381117,-0.0207694180987
1580310897667891588,-0.0158824961931,-0.012217304764,-0.0109955742876
1580310897667900000,-0.00610865238198,-0.0109955742876,0.00488692190558
1580310897674170824,0.0012217304764,-0.00855211333477,-0.00366519142919
1580310897674196832,-0.00977384381117,-0.0146607657168,-0.00855211333477
1580310897679517020,-0.012217304764,-0.00977384381117,0.0
1580310897684771162,-0.0012217304764,-0.00733038285838,0.0109955742876
1580310897684789210,-0.00244346095279,0.00488692190558,0.0012217304764
1580310897692607019,0.00488692190558,0.00733038285838,0.00610865238198
1580310897703152144,0.0,0.00610865238198,0.00977384381117
1580310897703180393,-0.00244346095279,0.00244346095279,-0.0195476876223
1580310897709714768,-0.0219911485751,-0.00244346095279,-0.0171042266695
1580310897709740170,-0.00733038285838,0.00366519142919,-0.00610865238198
1580310897709756519,0.0,0.00488692190558,-0.00366519142919
1580310897716810583,0.00610865238198,0.00244346095279,0.0
1580310897716832405,-0.00733038285838,-0.00488692190558,-0.00733038285838
1580310897722861103,0.00366519142919,0.00488692190558,0.00366519142919
1580310897729661248,-0.0012217304764,0.00610865238198,-0.0158824961931
1580310897729764957,-0.00244346095279,0.00488692190558,-0.00977384381117
1580310897743743711,-0.00366519142919,0.0012217304764,-0.00244346095279
1580310897743868180,-0.0012217304764,0.00244346095279,0.00610865238198
1580310897748162713,0.00610865238198,-0.00488692190558,0.00366519142919
1580310897748185460,0.0146607657168,0.00610865238198,0.0146607657168
1580310897748200655,-0.0012217304764,0.0,-0.00488692190558
1580310897755837736,0.00244346095279,0.00366519142919,0.00610865238198
1580310897759784198,0.0,0.00488692190558,0.00244346095279
1580310897759799977,-0.00244346095279,-0.00488692190558,0.00733038285838
1580310897763822749,-0.0012217304764,-0.00366519142919,-0.0232128790515
1580310897768858989,-0.00733038285838,-0.00855211333477,-0.00610865238198
1580310897772733048,0.0,0.0012217304764,-0.0146607657168
1580310897780876260,-0.00977384381117,0.0,-0.0134390352404
1580310897786308521,0.00366519142919,0.012217304764,0.00855211333477
1580310897786335864,0.00488692190558,0.00855211333477,0.0146607657168
1580310897790033054,0.00733038285838,0.00366519142919,0.00855211333477
1580310897796683874,0.00855211333477,0.00977384381117,0.00855211333477
1580310897796713956,-0.00366519142919,0.0012217304764,-0.00610865238198
1580310897798466126,-0.00610865238198,0.00366519142919,-0.00610865238198
1580310897803009355,-0.00366519142919,0.0012217304764,-0.00977384381117
1580310897809811404,0.00733038285838,0.00977384381117,0.00244346095279
1580310897816841518,-0.00610865238198,0.0,0.0
1580310897823781201,0.0,-0.00855211333477,0.0280998009571
1580310897823814145,0.00733038285838,0.00488692190558,0.00855211333477
1580310897833082314,0.00488692190558,0.00488692190558,0.00733038285838
1580310897833092031,0.00610865238198,0.00244346095279,0.00855211333477
1580310897838494023,-0.00977384381117,-0.00855211333477,-0.00733038285838
1580310897847474777,-0.0146607657168,-0.00488692190558,-0.0244346095279
1580310897847501643,0.00610865238198,0.00488692190558,0.00733038285838
1580310897847528906,0.0134390352404,0.00610865238198,0.0183259571459
1580310897851230992,-0.00855211333477,-0.00244346095279,-0.00366519142919
1580310897851246594,-0.0109955742876,0.00366519142919,-0.00855211333477
1580310897858970371,-0.00244346095279,0.012217304764,-0.00610865238198
1580310897865201423,0.0012217304764,0.0012217304764,0.0
1580310897865210079,0.00610865238198,0.00488692190558,-0.00488692190558
1580310897871524190,0.00855211333477,-0.0012217304764,-0.012217304764
1580310897877988282,0.0,-0.00977384381117,0.00244346095279
1580310897878009200,0.00610865238198,-0.00488692190558,0.00366519142919
1580310897885169103,0.00977384381117,0.00977384381117,0.0109955742876
1580310897885190829,0.00488692190558,0.00488692190558,0.0
1580310897896256004,0.00733038285838,0.00244346095279,0.00733038285838
1580310897904167069,0.00733038285838,0.00610865238198,0.00855211333477
1580310897904207258,0.00488692190558,0.0,0.00488692190558
1580310897904229760,-0.0012217304764,-0.00366519142919,0.0
1580310897909872732,-0.00244346095279,0.00366519142919,0.0012217304764
1580310897909886063,0.00610865238198,0.00488692190558,0.00244346095279
1580310897916972172,0.00977384381117,0.0,-0.00488692190558
1580310897923324553,0.0134390352404,0.00855211333477,0.00977384381117
1580310897923361666,0.00610865238198,0.00610865238198,0.0134390352404
1580310897930598794,0.0109955742876,0.00244346095279,0.0146607657168
1580310897930611278,0.0,0.00733038285838,0.0134390352404
1580310897950516868,0.0,-0.00366519142919,-0.00855211333477
1580310897950528217,-0.00244346095279,-0.00733038285838,-0.00366519142919
1580310897950537424,-0.00733038285838,0.00244346095279,-0.0183259571459
1580310897950569972,0.00366519142919,0.00488692190558,-0.00733038285838
1580310897959840579,0.00610865238198,0.00610865238198,-0.00610865238198
1580310897959849993,0.0,0.00733038285838,0.00610865238198
1580310897959887129,0.0,-0.00610865238198,0.0146607657168
1580310897966404309,-0.00610865238198,-0.00366519142919,-0.00977384381117
1580310897966421664,-0.00366519142919,-0.00366519142919,-0.00733038285838
1580310897972586681,-0.00977384381117,-0.00244346095279,-0.0171042266695
1580310897972673759,-0.00733038285838,-0.0012217304764,-0.0256563400043
1580310897996798469,-0.00366519142919,-0.00977384381117,-0.012217304764
1580310897996811739,-0.00855211333477,-0.0134390352404,0.00855211333477
1580310897996824521,-0.00733038285838,-0.00733038285838,-0.00855211333477
1580310897996837006,0.00366519142919,0.00488692190558,0.00977384381117
1580310898002780261,0.0012217304764,0.0,0.00244346095279
1580310898002788099,-0.0109955742876,-0.00488692190558,-0.00977384381117
1580310898002845683,-0.00366519142919,-0.0012217304764,-0.00488692190558
1580310898010204309,0.0134390352404,0.0,-0.00244346095279
1580310898013955368,-0.00733038285838,-0.0012217304764,-0.00366519142919
1580310898013987306,-0.00610865238198,-0.00366519142919,-0.00366519142919
1580310898020368731,-0.00244346095279,0.00244346095279,0.0012217304764
1580310898020403387,0.0,0.00244346095279,-0.0134390352404
1580310898042935401,0.00855211333477,0.00855211333477,0.00610865238198
1580310898042947717,0.00855211333477,0.00488692190558,0.0158824961931
1580310898042967054,0.00610865238198,0.00733038285838,0.0207694180987
1580310898043000026,0.00610865238198,0.0012217304764,0.00855211333477
1580310898050643663,-0.0109955742876,-0.00610865238198,-0.0109955742876
1580310898050658025,-0.0146607657168,-0.00488692190558,-0.00244346095279
1580310898050734071,-0.00488692190558,-0.00488692190558,0.00366519142919
1580310898067987370,0.00488692190558,0.00855211333477,0.00244346095279
1580310898067997606,-0.00366519142919,-0.00977384381117,0.0109955742876
1580310898068060823,-0.00244346095279,-0.00855211333477,0.0
1580310898076411577,-0.00855211333477,-0.00733038285838,-0.00733038285838
1580310898076428098,-0.00366519142919,0.00610865238198,-0.00610865238198
1580310898076464931,0.00733038285838,0.00855211333477,0.00366519142919
1580310898095082446,0.00244346095279,0.00733038285838,0.0012217304764
1580310898095092455,0.00855211333477,0.00244346095279,0.00244346095279
1580310898095209254,0.00610865238198,0.0012217304764,-0.0134390352404
1580310898095229059,0.00366519142919,0.0012217304764,0.0
1580310898100514223,-0.00488692190558,-0.00244346095279,0.00855211333477
1580310898100523952,0.00366519142919,0.00488692190558,0.012217304764
1580310898100531830,0.00855211333477,0.00733038285838,0.0109955742876
1580310898109801777,0.0134390352404,0.00488692190558,0.00244346095279
1580310898116084402,0.00977384381117,0.0012217304764,-0.00610865238198
1580310898116184829,0.0,-0.00366519142919,-0.012217304764
1580310898122861292,-0.00244346095279,0.0,0.00733038285838
1580310898122876744,0.0,0.00488692190558,0.00855211333477
1580310898139135039,-0.00977384381117,0.0,-0.0109955742876
1580310898139155085,0.00366519142919,0.00244346095279,-0.00855211333477
1580310898139163534,0.012217304764,0.00610865238198,0.0109955742876
1580310898139204582,0.0,0.00610865238198,-0.012217304764
1580310898150901966,-0.00488692190558,0.00366519142919,-0.0280998009571
1580310898150929567,-0.00733038285838,0.00855211333477,0.0
1580310898156932354,0.00366519142919,0.00977384381117,0.0134390352404
1580310898156945533,0.00733038285838,0.00855211333477,0.00855211333477
1580310898164682888,0.00733038285838,0.00366519142919,-0.00733038285838
1580310898164695063,0.0,0.00488692190558,0.00244346095279
1580310898181053156,0.00733038285838,0.00488692190558,0.0171042266695
1580310898181060774,-0.0012217304764,0.00977384381117,0.0
1580310898181106014,-0.00366519142919,0.00610865238198,0.00610865238198
1580310898181113756,-0.00733038285838,-0.00488692190558,-0.00610865238198
1580310898185344469,-0.00610865238198,-0.0146607657168,0.0
1580310898185369785,0.00366519142919,-0.00855211333477,0.00488692190558
1580310898192673835,-0.00977384381117,-0.0109955742876,0.00366519142919
1580310898198933944,-0.00610865238198,-0.00977384381117,-0.00488692190558
1580310898198970692,-0.00488692190558,-0.0109955742876,0.0
1580310898208677033,0.00488692190558,0.00366519142919,-0.00366519142919
1580310898208702491,0.00855211333477,-0.00366519142919,0.0207694180987
1580310898225136580,0.0012217304764,0.00244346095279,0.00366519142919
1580310898225150605,-0.0207694180987,-0.00488692190558,-0.012217304764
1580310898225171304,-0.00855211333477,0.00610865238198,-0.0109955742876
1580310898225180984,0.0,0.0146607657168,0.00977384381117
1580310898231899691,-0.00733038285838,-0.00366519142919,-0.00855211333477
1580310898231909525,-0.0146607657168,-0.00366519142919,-0.0134390352404
1580310898241278580,-0.00610865238198,0.0,-0.00977384381117
1580310898241290122,0.00366519142919,-0.0012217304764,0.0
1580310898249950421,-0.0012217304764,-0.0012217304764,0.0
1580310898250023709,0.00610865238198,0.00488692190558,0.0109955742876
1580310898270735371,0.0,0.00488692190558,0.00733038285838
1580310898270756648,-0.0012217304764,-0.00610865238198,-0.00610865238198
1580310898270839278,-0.00610865238198,-0.00855211333477,0.0012217304764
1580310898270866852,0.00733038285838,0.0,-0.00244346095279
1580310898286958696,0.00610865238198,0.0134390352404,0.0109955742876
1580310898286970877,0.0,-0.00366519142919,0.00488692190558
1580310898286983566,-0.012217304764,-0.0109955742876,-0.0146607657168
1580310898287021198,-0.0012217304764,-0.0171042266695,0.0
1580310898287357419,0.0012217304764,-0.00366519142919,0.00855211333477
1580310898305427380,0.0,-0.0012217304764,-0.00855211333477
1580310898305470370,0.0012217304764,-0.00488692190558,-0.00366519142919
1580310898305493434,0.0012217304764,-0.0012217304764,-0.00733038285838
1580310898305676865,-0.00244346095279,-0.012217304764,-0.00610865238198
1580310898316208046,-0.00733038285838,-0.0109955742876,0.00244346095279
1580310898316238239,0.00733038285838,0.00366519142919,0.0109955742876
1580310898316252891,0.0158824961931,0.00610865238198,0.00855211333477
1580310898325135267,0.00733038285838,0.00855211333477,0.0012217304764
1580310898325162864,0.0146607657168,0.00855211333477,0.0134390352404
1580310898325173001,0.00733038285838,0.00977384381117,0.00855211333477
1580310898343413472,0.00733038285838,0.0,0.0012217304764
1580310898343422873,0.0012217304764,0.0109955742876,-0.00366519142919
1580310898343431353,0.0,0.00488692190558,-0.00366519142919
1580310898343439538,0.0,0.0,-0.00366519142919
1580310898355802149,-0.00610865238198,0.0,-0.00610865238198
1580310898355834015,-0.00977384381117,-0.00977384381117,-0.00977384381117
1580310898355939917,0.00855211333477,-0.00366519142919,0.00366519142919
1580310898362765463,0.0,0.0,0.00733038285838
1580310898362772982,-0.0171042266695,-0.00733038285838,-0.0134390352404
1580310898362783648,-0.00488692190558,-0.00977384381117,0.0012217304764
1580310898371783374,-0.0146607657168,-0.0109955742876,-0.00733038285838
1580310898371814033,-0.00733038285838,-0.00855211333477,0.0
1580310898377425449,0.00977384381117,0.00733038285838,0.0
1580310898377431453,0.00855211333477,0.00977384381117,0.00366519142919
1580310898397392517,0.00244346095279,0.00610865238198,0.0
1580310898397407568,-0.00733038285838,-0.00610865238198,-0.0232128790515
1580310898397417380,0.00488692190558,0.0,-0.0134390352404
1580310898397425810,0.0012217304764,0.00488692190558,-0.00977384381117
1580310898406804672,0.00733038285838,0.00855211333477,-0.00977384381117
1580310898406846988,0.00733038285838,0.00733038285838,0.012217304764
1580310898406891565,-0.00366519142919,-0.00610865238198,0.00488692190558
1580310898415928849,-0.00488692190558,-0.00488692190558,-0.0195476876223
1580310898415943593,0.00610865238198,-0.00244346095279,0.00488692190558
1580310898424124033,0.0012217304764,0.012217304764,0.0134390352404
1580310898424142185,0.00610865238198,0.00366519142919,0.0146607657168
1580310898440353789,-0.00366519142919,-0.00610865238198,-0.00488692190558
1580310898440369750,-0.0146607657168,-0.00610865238198,-0.00977384381117
1580310898440416148,-0.00244346095279,-0.00366519142919,0.00855211333477
1580310898440426236,-0.00977384381117,0.00855211333477,0.00488692190558
1580310898448442508,-0.012217304764,-0.00366519142919,-0.0134390352404
1580310898448461445,0.00244346095279,0.0,-0.0171042266695
1580310898462941243,0.00244346095279,0.0,-0.00977384381117
1580310898462948327,0.0,0.00855211333477,-0.00366519142919
1580310898463002193,0.00855211333477,-0.00244346095279,0.0134390352404
1580310898471750473,0.00488692190558,0.0012217304764,0.00733038285838
1580310898471769880,0.00244346095279,-0.00977384381117,0.0
1580310898471783976,-0.012217304764,-0.00488692190558,-0.0158824961931
1580310898487560132,-0.0195476876223,-0.00366519142919,-0.0158824961931
1580310898487571147,0.0,-0.00610865238198,-0.0012217304764
1580310898487582241,0.0,0.00977384381117,-0.00610865238198
1580310898487607992,0.0012217304764,0.00488692190558,0.0012217304764
1580310898496840333,0.0146607657168,0.00488692190558,-0.00855211333477
1580310898496912937,0.0109955742876,0.00488692190558,0.00855211333477
1580310898508355346,0.00488692190558,0.00977384381117,0.00488692190558
1580310898508369851,0.00733038285838,0.00733038285838,0.00855211333477
1580310898508421913,-0.00855211333477,-0.00733038285838,-0.00977384381117
1580310898519291785,-0.00977384381117,-0.00610865238198,-0.00855211333477
1580310898519328880,0.00610865238198,0.0,0.00366519142919
1580310898526199529,-0.00244346095279,-0.00488692190558,-0.012217304764
1580310898526206800,-0.00977384381117,-0.012217304764,-0.0134390352404
1580310898526236374,-0.00488692190558,-0.0158824961931,0.0012217304764
1580310898539686806,-0.00733038285838,-0.00488692190558,-0.0183259571459
1580310898539725341,0.00488692190558,0.00488692190558,-0.00855211333477
1580310898553113323,0.00366519142919,-0.0012217304764,0.00244346095279
1580310898553126150,0.00733038285838,0.00977384381117,0.0
1580310898553171983,-0.00855211333477,-0.00977384381117,-0.0109955742876
1580310898553185324,-0.0109955742876,-0.0146607657168,-0.00244346095279
1580310898563587637,-0.00366519142919,-0.0146607657168,0.0012217304764
1580310898563600174,-0.012217304764,-0.00366519142919,-0.0244346095279
1580310898563608058,0.00977384381117,0.00244346095279,0.00855211333477
1580310898572553190,0.00366519142919,0.00977384381117,0.00244346095279
1580310898572588600,0.00733038285838,0.0146607657168,-0.00244346095279
1580310898580969363,0.00733038285838,0.00977384381117,0.00244346095279
1580310898580979971,0.0,0.0109955742876,0.00977384381117
1580310898597564745,-0.00366519142919,-0.00855211333477,-0.00244346095279
1580310898597572711,-0.00244346095279,-0.0012217304764,0.012217304764
1580310898597605156,0.00733038285838,0.0,0.00733038285838
1580310898597620371,-0.0012217304764,-0.00366519142919,-0.0195476876223
1580310898605774495,0.0,0.00244346095279,-0.0109955742876
1580310898605782431,-0.0012217304764,0.00366519142919,0.00855211333477
1580310898605807082,0.00488692190558,0.00733038285838,0.00488692190558
1580310898614837678,0.00488692190558,0.0,-0.0012217304764
1580310898614906820,-0.00977384381117,-0.00244346095279,-0.00977384381117
1580310898619491180,-0.0158824961931,-0.00244346095279,-0.0280998009571
1580310898619501404,-0.00733038285838,0.0,-0.012217304764
1580310898640993817,-0.012217304764,-0.00977384381117,-0.0012217304764
1580310898641013558,-0.00244346095279,-0.0012217304764,-0.0012217304764
1580310898641028884,-0.00366519142919,0.00366519142919,0.00244346095279
1580310898641071513,-0.012217304764,-0.0109955742876,-0.00244346095279
1580310898650496352,-0.00733038285838,-0.00855211333477,0.0
1580310898650572692,-0.0158824961931,-0.0012217304764,-0.0158824961931
1580310898657534421,0.00244346095279,-0.00855211333477,0.00244346095279
1580310898657545187,0.00610865238198,0.00488692190558,0.00366519142919
1580310898657582681,0.0,-0.0012217304764,0.00488692190558
1580310898665667714,-0.00366519142919,-0.0146607657168,-0.0012217304764
1580310898675521647,-0.00244346095279,-0.00733038285838,0.00855211333477
1580310898675540190,-0.00366519142919,-0.00366519142919,-0.00733038285838
1580310898675565090,-0.0012217304764,-0.00610865238198,-0.00733038285838
1580310898682831617,-0.0146607657168,-0.00855211333477,-0.0134390352404
1580310898682879915,-0.0195476876223,-0.00610865238198,-0.0207694180987
1580310898689569823,-0.0195476876223,-0.00610865238198,-0.0207694180987
1580310898689693304,-0.00855211333477,-0.00977384381117,-0.00855211333477
1580310898712554759,0.0,0.00610865238198,-0.00610865238198
1580310898712569077,0.00610865238198,0.00488692190558,-0.00244346095279
1580310898712580178,-0.00244346095279,0.00366519142919,-0.00366519142919
1580310898712591078,-0.00977384381117,-0.00855211333477,-0.0109955742876
1580310898720671545,-0.00244346095279,-0.00366519142919,-0.00610865238198
1580310898720691067,0.00610865238198,0.00488692190558,-0.0134390352404
1580310898720725841,0.00855211333477,0.0,0.0
1580310898728453871,0.00610865238198,0.00488692190558,0.00610865238198
1580310898728464147,0.0012217304764,0.00610865238198,0.012217304764
1580310898735643080,0.00244346095279,-0.0012217304764,0.00244346095279
1580310898735671160,-0.00244346095279,0.0,-0.00244346095279
1580310898751603948,0.00610865238198,0.00610865238198,0.0
1580310898751615768,-0.00977384381117,-0.0012217304764,-0.0232128790515
1580310898751637288,-0.0219911485751,0.0012217304764,-0.0134390352404
1580310898751649595,-0.00244346095279,0.00366519142919,0.00488692190558
1580310898757080865,-0.0012217304764,0.0,-0.00610865238198
1580310898757142356,-0.00244346095279,0.00488692190558,0.012217304764
1580310898765613397,0.00610865238198,0.00610865238198,0.00855211333477
1580310898773105622,-0.00366519142919,0.00610865238198,-0.0171042266695
1580310898773125583,0.00733038285838,0.00977384381117,0.0109955742876
1580310898777762100,0.0012217304764,0.00488692190558,0.00977384381117
1580310898777771997,-0.00366519142919,0.0012217304764,-0.00244346095279
1580310898797892097,-0.00855211333477,0.00610865238198,-0.0109955742876
1580310898797905821,0.00244346095279,0.00733038285838,0.012217304764
1580310898797988549,0.00610865238198,0.00855211333477,0.012217304764
1580310898798004937,0.00610865238198,0.00855211333477,-0.0012217304764
1580310898803124384,-0.00244346095279,0.00488692190558,0.00610865238198
1580310898803150707,-0.00366519142919,-0.00366519142919,0.0
1580310898810263457,0.0012217304764,0.00366519142919,0.0012217304764
1580310898810311938,0.00855211333477,0.00488692190558,-0.00244346095279
1580310898817648079,0.00733038285838,0.0146607657168,0.00488692190558
1580310898824747028,0.00488692190558,0.00855211333477,0.00610865238198
1580310898824783249,-0.00610865238198,-0.00244346095279,-0.0134390352404
1580310898832795130,-0.0012217304764,-0.00244346095279,-0.0195476876223
1580310898832831734,0.0,-0.0012217304764,-0.0158824961931
1580310898847819871,-0.00488692190558,0.00488692190558,-0.0012217304764
1580310898847832484,-0.00733038285838,0.00488692190558,-0.00855211333477
1580310898847843317,-0.00610865238198,0.00488692190558,-0.0134390352404
1580310898847881630,-0.00244346095279,-0.0134390352404,0.0
1580310898855595169,-0.00366519142919,-0.00855211333477,-0.00488692190558
1580310898855615340,-0.00244346095279,0.0,-0.00244346095279
1580310898860875434,0.00366519142919,-0.00244346095279,0.00855211333477
1580310898860883470,0.00855211333477,0.0012217304764,0.0
1580310898864615336,0.0134390352404,0.0,0.012217304764
1580310898873175414,0.00488692190558,-0.0012217304764,0.00366519142919
1580310898873192876,0.00610865238198,0.0012217304764,-0.0012217304764
1580310898879328106,0.00610865238198,-0.00244346095279,0.0207694180987
1580310898884679363,0.00244346095279,0.0134390352404,0.0195476876223
1580310898884786981,-0.00244346095279,0.0,0.00733038285838
1580310898891155341,-0.0012217304764,-0.00488692190558,-0.00855211333477
1580310898896614279,0.00244346095279,-0.0012217304764,-0.00733038285838
1580310898896652914,-0.00488692190558,-0.00610865238198,-0.0134390352404
1580310898904705152,-0.00610865238198,-0.00855211333477,0.00244346095279
1580310898912433859,-0.00488692190558,-0.00610865238198,-0.00244346095279
1580310898912456708,-0.0012217304764,0.00244346095279,-0.0012217304764
1580310898919357704,0.00733038285838,0.00488692190558,0.0109955742876
1580310898919385524,0.00733038285838,0.00610865238198,0.00610865238198
1580310898937275970,0.00855211333477,0.0,0.0183259571459
1580310898937293526,0.00977384381117,0.00733038285838,0.00610865238198
1580310898937306616,0.00366519142919,0.00610865238198,-0.00488692190558
1580310898937318111,0.0,0.00855211333477,-0.00488692190558
1580310898944387129,0.00366519142919,-0.0012217304764,0.00244346095279
1580310898944431305,-0.0012217304764,0.00244346095279,-0.00244346095279
1580310898952467085,0.0,0.00488692190558,0.0012217304764
1580310898952509738,-0.0171042266695,-0.00733038285838,0.00488692190558
1580310898959686363,-0.00733038285838,-0.0134390352404,-0.00244346095279
1580310898959700188,0.0,-0.00488692190558,-0.00610865238198
1580310898973130590,-0.0158824961931,-0.00855211333477,-0.00977384381117
1580310898973160820,0.0,0.00488692190558,0.00244346095279
1580310898973173008,0.0012217304764,-0.00610865238198,0.0
1580310898973254937,-0.0012217304764,-0.00366519142919,-0.0268780704807
1580310898980268030,-0.00244346095279,0.0,-0.00610865238198
1580310898980278564,0.0,-0.00488692190558,0.00855211333477
1580310898985750635,0.0,0.00733038285838,0.00855211333477
1580310899000439438,0.0,0.00488692190558,-0.00733038285838
1580310899000543544,-0.0146607657168,-0.0012217304764,-0.00855211333477
1580310899011013286,-0.00488692190558,-0.00488692190558,0.0
1580310899011041596,-0.00733038285838,-0.00855211333477,0.00366519142919
1580310899011101382,-0.00855211333477,-0.0158824961931,0.00610865238198
1580310899011128383,-0.0109955742876,-0.012217304764,0.0
1580310899021584472,-0.00366519142919,-0.00366519142919,-0.0244346095279
1580310899021623787,-0.0134390352404,-0.00366519142919,-0.0207694180987
1580310899028519278,-0.00610865238198,0.0012217304764,-0.00488692190558
1580310899028542304,-0.00366519142919,0.00244346095279,0.0012217304764
1580310899046799736,-0.00366519142919,-0.00366519142919,-0.0195476876223
1580310899046812874,-0.00610865238198,0.00366519142919,-0.0183259571459
1580310899046821326,-0.00366519142919,0.00366519142919,-0.0012217304764
1580310899046831743,0.0,0.00855211333477,0.00366519142919
1580310899054558269,0.00488692190558,0.00488692190558,-0.00366519142919
1580310899054570484,-0.012217304764,0.00366519142919,-0.00733038285838
1580310899054592368,-0.00977384381117,-0.0012217304764,-0.0158824961931
1580310899062847892,-0.00855211333477,-0.00244346095279,-0.0012217304764
1580310899062870926,0.0,-0.00366519142919,-0.0109955742876
1580310899067970082,0.0,-0.00610865238198,-0.00733038285838
1580310899068002136,0.0,0.00244346095279,-0.00855211333477
1580310899090766990,0.00244346095279,-0.0012217304764,-0.00733038285838
1580310899090792055,0.0,-0.0158824961931,0.0
1580310899090801903,0.0,-0.0012217304764,0.00610865238198
1580310899090819519,-0.00488692190558,0.00855211333477,0.00855211333477
1580310899096596157,0.00733038285838,0.0109955742876,0.00977384381117
1580310899096775430,0.00855211333477,0.012217304764,0.00977384381117
1580310899106113757,0.00855211333477,0.0109955742876,0.00977384381117
1580310899106155637,0.0012217304764,-0.00488692190558,0.00610865238198
1580310899115900423,-0.00610865238198,-0.0134390352404,-0.00610865238198
1580310899115914207,-0.0109955742876,-0.0012217304764,0.0134390352404
1580310899115924026,-0.012217304764,-0.00488692190558,-0.00366519142919
1580310899122854411,-0.00855211333477,0.00244346095279,-0.00488692190558
1580310899122883731,0.00366519142919,0.00488692190558,-0.0012217304764
1580310899130438060,-0.00733038285838,-0.0109955742876,0.00733038285838
1580310899130448251,-0.00488692190558,-0.00977384381117,-0.00488692190558
1580310899147132269,0.0109955742876,-0.00855211333477,0.00855211333477
1580310899147146944,0.00855211333477,0.00244346095279,0.012217304764
1580310899147155527,-0.00488692190558,-0.00733038285838,-0.0158824961931
1580310899147164710,0.0,-0.0012217304764,0.0158824961931
1580310899158694606,0.00366519142919,0.0146607657168,0.0109955742876
1580310899158723221,-0.0012217304764,0.00855211333477,0.0
1580310899168481990,0.00488692190558,0.00244346095279,0.00733038285838
1580310899168491459,0.00244346095279,0.0012217304764,0.00977384381117
1580310899168550067,0.0012217304764,-0.00977384381117,0.0012217304764
1580310899177183130,-0.00244346095279,-0.00733038285838,-0.0195476876223
1580310899177217994,-0.012217304764,-0.0012217304764,-0.0195476876223
1580310899188486196,-0.0146607657168,-0.0012217304764,-0.00366519142919
1580310899188538259,-0.00733038285838,0.0,-0.00488692190558
1580310899204253417,0.0,0.00366519142919,-0.00366519142919
1580310899204263520,0.0012217304764,-0.00366519142919,-0.0109955742876
1580310899204272760,-0.00977384381117,-0.00488692190558,-0.0183259571459
1580310899204303818,-0.00977384381117,0.00488692190558,-0.0183259571459
1580310899209759143,-0.00610865238198,0.00977384381117,-0.00977384381117
1580310899209769942,-0.00488692190558,-0.0012217304764,0.0195476876223
1580310899209792219,-0.00366519142919,-0.00855211333477,0.0012217304764
1580310899218086848,-0.00366519142919,-0.0012217304764,0.00855211333477
1580310899218167718,0.00855211333477,0.00488692190558,0.0232128790515
1580310899226129062,-0.012217304764,-0.00366519142919,-0.00488692190558
1580310899226156810,-0.0134390352404,-0.0183259571459,0.00488692190558
1580310899246216887,-0.0171042266695,-0.00488692190558,-0.0158824961931
1580310899246235296,-0.00366519142919,0.00488692190558,-0.0268780704807
1580310899246242685,0.00855211333477,0.00977384381117,-0.00366519142919
1580310899246248725,0.0,0.0,0.0012217304764
1580310899257009564,-0.0109955742876,-0.00855211333477,0.0012217304764
1580310899257054839,-0.00488692190558,0.0,0.0
1580310899257066215,0.00733038285838,0.00855211333477,0.0207694180987
1580310899267970193,0.0,0.0012217304764,0.00366519142919
1580310899267981808,0.0012217304764,0.00733038285838,0.0171042266695
1580310899279770960,0.00244346095279,-0.00366519142919,0.0280998009571
1580310899279801778,0.00366519142919,0.00366519142919,-0.00244346095279
1580310899279811998,0.0146607657168,0.00366519142919,0.00366519142919
1580310899279846715,0.0,0.00366519142919,-0.00366519142919
1580310899288772213,0.0,0.00488692190558,0.0012217304764
1580310899288812565,-0.00977384381117,-0.00366519142919,-0.00244346095279
1580310899298677234,-0.00366519142919,0.00610865238198,-0.012217304764
1580310899298994686,0.0109955742876,0.00977384381117,0.0012217304764
1580310899299053846,0.0,-0.00244346095279,0.0
1580310899304481068,0.00366519142919,0.00977384381117,0.00610865238198
1580310899304513117,0.0,0.0012217304764,0.0
1580310899309560270,-0.00733038285838,0.0,-0.0183259571459
1580310899313998910,0.00733038285838,0.00366519142919,-0.00488692190558
1580310899318068177,-0.00366519142919,0.00244346095279,-0.0158824961931
1580310899321679254,-0.0012217304764,-0.00366519142919,-0.00855211333477
1580310899325860017,0.0,0.0,-0.00977384381117
1580310899333723226,-0.00610865238198,-0.00610865238198,-0.0183259571459
1580310899333770437,-0.00244346095279,-0.00244346095279,-0.0232128790515
1580310899337695736,-0.00244346095279,-0.00244346095279,-0.00733038285838
1580310899341676738,-0.00977384381117,-0.00855211333477,0.0012217304764
1580310899349880244,-0.0109955742876,-0.00244346095279,-0.012217304764
1580310899349890027,-0.00855211333477,-0.00610865238198,-0.0134390352404
1580310899355324251,0.0,-0.0109955742876,0.00733038285838
1580310899359449169,0.00244346095279,-0.0012217304764,0.0183259571459
1580310899359490354,0.00733038285838,0.00244346095279,0.00244346095279
1580310899366220433,0.0012217304764,0.00733038285838,0.00855211333477
1580310899370991586,0.00244346095279,0.0109955742876,0.0134390352404
1580310899379217203,0.0012217304764,0.00366519142919,0.00733038285838
1580310899387328925,0.00610865238198,0.00733038285838,0.00855211333477
1580310899387345814,0.00244346095279,0.00488692190558,0.00488692190558
1580310899387403186,-0.0134390352404,-0.00733038285838,-0.00244346095279
1580310899393340823,-0.0171042266695,-0.00244346095279,-0.0134390352404
1580310899393361239,-0.0109955742876,-0.00244346095279,0.00488692190558
1580310899398530829,0.0134390352404,0.00488692190558,0.00733038285838
1580310899406487104,0.00977384381117,0.0134390352404,0.00977384381117
1580310899406503214,0.00244346095279,0.0195476876223,0.00244346095279
1580310899413550615,-0.0012217304764,-0.0012217304764,-0.00366519142919
1580310899413583609,0.0,-0.00855211333477,0.00244346095279
1580310899434588389,0.00610865238198,0.0,0.0
1580310899434605411,-0.00733038285838,-0.0109955742876,-0.0012217304764
1580310899434618148,-0.00977384381117,-0.0158824961931,0.00488692190558
1580310899434665978,-0.0012217304764,-0.012217304764,0.0109955742876
1580310899439691451,0.00488692190558,-0.00244346095279,0.00610865238198
1580310899439710955,-0.012217304764,-0.00855211333477,-0.012217304764
1580310899447122613,-0.0158824961931,0.0,-0.0146607657168
1580310899447151696,-0.00855211333477,0.00488692190558,0.0
1580310899455279600,-0.00488692190558,-0.00488692190558,0.00977384381117
1580310899455292812,0.00610865238198,0.0,0.0158824961931
1580310899473754404,-0.012217304764,-0.00855211333477,-0.0207694180987
1580310899473819768,-0.00610865238198,-0.00855211333477,-0.012217304764
1580310899473847982,-0.00855211333477,-0.00610865238198,-0.0183259571459
1580310899473861473,-0.00977384381117,-0.00977384381117,0.00488692190558
1580310899482952462,0.012217304764,0.00610865238198,-0.00366519142919
1580310899482966401,-0.00244346095279,0.0109955742876,-0.00855211333477
1580310899483021386,-0.00733038285838,0.0,-0.00977384381117
1580310899494804570,-0.0109955742876,0.0,-0.0183259571459
1580310899494817496,0.00488692190558,0.0012217304764,-0.00366519142919
1580310899512976228,0.00244346095279,0.00977384381117,0.00488692190558
1580310899512999905,-0.0012217304764,0.0012217304764,-0.00610865238198
1580310899513039539,-0.00733038285838,-0.00977384381117,0.0
1580310899523544271,-0.00366519142919,-0.00366519142919,-0.00244346095279
1580310899523550093,-0.0146607657168,-0.00488692190558,-0.0158824961931
1580310899523556289,0.0,-0.00244346095279,0.00366519142919
1580310899523579984,0.0,0.00366519142919,-0.012217304764
1580310899532581722,0.00244346095279,-0.00977384381117,-0.0012217304764
1580310899533932164,0.00366519142919,-0.00244346095279,-0.00610865238198
1580310899533947303,-0.0146607657168,-0.0012217304764,-0.00488692190558
1580310899543481025,-0.00855211333477,0.0109955742876,-0.00610865238198
1580310899543525013,-0.00366519142919,0.00610865238198,-0.00855211333477
1580310899543535066,-0.00366519142919,-0.00977384381117,-0.0012217304764
1580310899561528876,0.00366519142919,0.00244346095279,-0.00366519142919
1580310899561537872,0.00610865238198,0.00855211333477,0.0171042266695
1580310899561545141,0.00855211333477,0.00366519142919,0.0232128790515
1580310899561551788,0.00488692190558,0.00366519142919,0.012217304764
1580310899565767785,0.0012217304764,-0.00366519142919,0.0109955742876
1580310899565795325,0.0012217304764,-0.0012217304764,-0.012217304764
1580310899569964585,-0.00855211333477,-0.00610865238198,-0.0171042266695
1580310899580817453,-0.00610865238198,-0.00733038285838,-0.00488692190558
1580310899580852363,0.0,0.00366519142919,-0.012217304764
1580310899595150607,-0.0109955742876,-0.00855211333477,0.00244346095279
1580310899595166146,-0.00733038285838,-0.00366519142919,-0.0109955742876
1580310899595181639,-0.00244346095279,-0.00488692190558,-0.00366519142919
1580310899602724820,-0.00244346095279,-0.00244346095279,0.00244346095279
1580310899602769455,-0.00366519142919,0.0012217304764,-0.00977384381117
1580310899602784037,0.00244346095279,0.00733038285838,0.0012217304764
1580310899627177113,0.0,-0.00244346095279,0.0171042266695
1580310899627184004,-0.0109955742876,-0.0195476876223,0.0012217304764
1580310899627218721,-0.0158824961931,-0.0134390352404,-0.00610865238198
1580310899627232675,-0.0171042266695,-0.0012217304764,-0.00733038285838
1580310899637539809,0.00366519142919,0.00488692190558,0.00488692190558
1580310899637557669,0.00366519142919,0.00610865238198,0.00610865238198
1580310899637569187,-0.00488692190558,0.00488692190558,0.0
1580310899637598884,0.0,-0.00244346095279,0.0012217304764
1580310899648128825,-0.00488692190558,-0.0012217304764,-0.012217304764
1580310899648208266,-0.0012217304764,-0.00610865238198,-0.0171042266695
1580310899663170041,-0.00855211333477,-0.00733038285838,0.0012217304764
1580310899663183509,-0.00977384381117,-0.00366519142919,-0.00488692190558
1580310899663196860,0.00488692190558,0.00733038285838,-0.0109955742876
1580310899663238354,0.0,0.00244346095279,-0.0146607657168
1580310899672583452,-0.00366519142919,0.00488692190558,-0.0219911485751
1580310899672591642,-0.00855211333477,0.0,-0.0012217304764
1580310899672598415,0.00244346095279,-0.00733038285838,0.0146607657168
1580310899687212881,-0.00610865238198,0.0012217304764,-0.0268780704807
1580310899687235417,-0.00977384381117,0.0,-0.0146607657168
1580310899687259713,-0.0012217304764,-0.0146607657168,-0.0109955742876
1580310899708566963,-0.0012217304764,-0.00977384381117,-0.00488692190558
1580310899708579147,-0.0109955742876,-0.012217304764,-0.0134390352404
1580310899708592765,-0.00244346095279,-0.012217304764,0.0012217304764
1580310899708602786,0.0,-0.0109955742876,-0.00244346095279
1580310899720064211,-0.0109955742876,-0.00366519142919,-0.0244346095279
1580310899720381068,-0.0109955742876,-0.00610865238198,-0.0293215314335
1580310899720393557,0.0012217304764,-0.0012217304764,0.00366519142919
1580310899720410656,0.0109955742876,0.00488692190558,0.0109955742876
1580310899720481386,0.0012217304764,0.00855211333477,0.00733038285838
1580310899731415875,0.00610865238198,0.00244346095279,-0.00244346095279
1580310899731431202,0.0,-0.00977384381117,0.0
1580310899739571573,-0.0012217304764,0.0,-0.0109955742876
1580310899739598611,0.00366519142919,0.00366519142919,-0.00488692190558
1580310899739647067,0.00488692190558,-0.00610865238198,0.0207694180987
1580310899744918790,0.00610865238198,-0.00366519142919,0.00855211333477
1580310899744948922,0.00733038285838,0.00366519142919,0.0158824961931
1580310899751356404,0.00488692190558,0.00366519142919,0.0158824961931
1580310899760439234,0.00855211333477,0.00366519142919,0.0
1580310899760467773,0.0,0.00244346095279,-0.00610865238198
1580310899769240957,-0.0146607657168,0.0,-0.0109955742876
1580310899769302474,-0.0012217304764,0.00488692190558,-0.00366519142919
1580310899769313868,-0.00855211333477,-0.00855211333477,-0.012217304764
1580310899775581985,-0.00366519142919,-0.00244346095279,-0.0171042266695
1580310899783877343,-0.00244346095279,0.00488692190558,0.0
1580310899783888244,0.00488692190558,-0.00610865238198,-0.00366519142919
1580310899790694519,0.0,-0.0109955742876,-0.00366519142919
1580310899790705811,-0.00244346095279,-0.00366519142919,-0.0134390352404
1580310899809263062,-0.00610865238198,0.0,-0.00610865238198
1580310899809276719,-0.00855211333477,-0.00488692190558,-0.0158824961931
1580310899809290334,-0.00733038285838,-0.00855211333477,-0.00488692190558
1580310899809302283,0.0,0.00366519142919,-0.0109955742876
1580310899822597072,0.00366519142919,-0.0012217304764,0.00733038285838
1580310899822616132,0.0,0.0012217304764,0.0
1580310899822649317,0.0,0.00610865238198,-0.00488692190558
1580310899833624998,-0.012217304764,-0.00488692190558,-0.0134390352404
1580310899833633722,-0.00488692190558,-0.00488692190558,0.00977384381117
1580310899833654997,-0.00610865238198,-0.012217304764,-0.00244346095279
1580310899839099365,-0.0012217304764,0.00610865238198,-0.0146607657168
1580310899839130107,0.00488692190558,0.00366519142919,-0.00610865238198
1580310899845657403,0.0109955742876,0.0012217304764,0.0134390352404
1580310899845667196,0.00488692190558,0.00855211333477,0.0109955742876
1580310899863973064,0.00733038285838,0.00488692190558,0.00610865238198
1580310899863988524,0.0146607657168,0.00488692190558,0.00855211333477
1580310899863996418,0.0,0.0146607657168,0.00610865238198
1580310899864006126,-0.0012217304764,0.00488692190558,0.00488692190558
1580310899869960499,0.00855211333477,0.00733038285838,0.0
1580310899869990422,0.012217304764,0.00610865238198,0.00244346095279
1580310899877985284,0.0,0.00488692190558,0.00366519142919
1580310899877993062,0.00488692190558,0.0134390352404,0.00244346095279
1580310899885075084,0.0,0.00610865238198,0.00244346095279
1580310899898402632,-0.00855211333477,-0.00733038285838,0.0109955742876
1580310899898448960,-0.00366519142919,-0.00488692190558,-0.00977384381117
1580310899898503542,-0.00855211333477,0.00610865238198,-0.00977384381117
1580310899906500498,-0.00366519142919,0.00610865238198,-0.00366519142919
1580310899906548701,-0.012217304764,-0.00488692190558,-0.00610865238198
1580310899915948429,-0.0012217304764,-0.00488692190558,-0.00855211333477
1580310899915955975,0.00977384381117,0.00610865238198,0.00366519142919
1580310899915964440,0.00244346095279,0.00244346095279,0.00733038285838
1580310899923065674,-0.00733038285838,-0.00244346095279,-0.00244346095279
1580310899923072472,-0.0109955742876,-0.00366519142919,-0.0109955742876
1580310899927764921,-0.00488692190558,-0.0109955742876,-0.0195476876223
1580310899927774872,-0.00610865238198,-0.00855211333477,-0.012217304764
1580310899948935461,-0.00733038285838,-0.00488692190558,-0.0195476876223
1580310899948943559,-0.00610865238198,0.0012217304764,-0.00488692190558
1580310899948965258,-0.00733038285838,-0.00977384381117,-0.00366519142919
1580310899948983331,0.00366519142919,0.00488692190558,-0.00977384381117
1580310899955711843,0.0134390352404,0.00855211333477,0.00488692190558
1580310899955720680,0.00610865238198,0.00855211333477,0.00610865238198
1580310899968428076,0.0,0.00488692190558,0.00366519142919
1580310899968443933,-0.00244346095279,-0.00733038285838,0.00610865238198
1580310899968501345,-0.00855211333477,-0.0158824961931,-0.00366519142919
1580310899978884402,-0.00733038285838,-0.00733038285838,-0.0012217304764
1580310899978891751,0.0012217304764,0.00977384381117,-0.0012217304764
1580310899987884780,-0.00366519142919,0.0012217304764,-0.0012217304764
1580310899987892610,0.00488692190558,0.00610865238198,0.012217304764
1580310899987936313,0.00977384381117,0.00488692190558,0.0109955742876
1580310899995998008,0.00610865238198,0.00733038285838,0.00244346095279
1580310899996028970,0.00366519142919,0.0012217304764,0.00366519142919
1580310900007908257,0.00366519142919,0.00244346095279,-0.00733038285838
1580310900007926626,0.0012217304764,0.00733038285838,-0.00366519142919
1580310900007947267,-0.0012217304764,0.00244346095279,-0.00244346095279
1580310900017109459,0.0012217304764,-0.0012217304764,0.00610865238198
1580310900017120764,0.00488692190558,-0.00244346095279,-0.00488692190558
1580310900024815768,-0.0012217304764,0.00244346095279,-0.00855211333477
1580310900024820365,0.00366519142919,0.00488692190558,-0.0012217304764
1580310900043102287,0.0,-0.00366519142919,0.00366519142919
1580310900043122764,0.00244346095279,-0.00244346095279,0.00488692190558
1580310900043131101,0.00733038285838,0.00366519142919,0.00488692190558
1580310900043137498,-0.00488692190558,0.0,-0.00488692190558
1580310900047581889,-0.0146607657168,-0.00733038285838,-0.012217304764
1580310900047592892,-0.012217304764,0.0,-0.0171042266695
1580310900047599407,-0.00244346095279,0.0012217304764,0.00610865238198
1580310900057857878,-0.00244346095279,0.00488692190558,-0.0012217304764
1580310900057883090,0.00733038285838,0.00977384381117,0.00977384381117
1580310900069880125,0.00610865238198,0.0146607657168,0.00855211333477
1580310900069898359,-0.0109955742876,0.00488692190558,-0.00488692190558
1580310900091166184,-0.0109955742876,-0.00733038285838,-0.00977384381117
1580310900091191347,-0.00366519142919,0.0,-0.00488692190558
1580310900091206143,0.0,0.00733038285838,-0.0012217304764
1580310900091219407,0.00244346095279,-0.00488692190558,0.0207694180987
1580310900107018011,0.00244346095279,-0.00733038285838,0.00244346095279
1580310900107026708,-0.00733038285838,0.0,-0.00366519142919
1580310900107094661,0.00855211333477,0.00733038285838,0.00488692190558
1580310900107104420,0.00733038285838,0.00610865238198,-0.00244346095279
1580310900121753500,0.00366519142919,0.00366519142919,-0.00488692190558
1580310900121795619,-0.00977384381117,0.0,-0.00855211333477
1580310900121815698,-0.00244346095279,-0.00488692190558,-0.00855211333477
1580310900121827600,-0.0146607657168,-0.00244346095279,-0.0268780704807
1580310900134618159,-0.00977384381117,0.00366519142919,-0.00610865238198
1580310900134624153,0.00733038285838,0.0012217304764,-0.00733038285838
1580310900134629649,0.00244346095279,0.0,-0.012217304764
1580310900136718281,-0.00855211333477,0.0012217304764,-0.0256563400043
1580310900150935131,0.0012217304764,0.00855211333477,-0.0109955742876
1580310900150942672,-0.00610865238198,-0.00977384381117,-0.00855211333477
1580310900150949213,-0.00366519142919,-0.00366519142919,-0.0183259571459
1580310900150966942,-0.0146607657168,-0.00977384381117,-0.0158824961931
1580310900164983807,-0.0134390352404,-0.00244346095279,-0.00610865238198
1580310900164995073,-0.00610865238198,-0.00488692190558,-0.00733038285838
1580310900165047548,-0.00244346095279,-0.00244346095279,0.00244346095279
1580310900174087385,0.0,0.00488692190558,-0.00733038285838
1580310900174114147,-0.012217304764,0.00244346095279,-0.00977384381117
1580310900174149504,-0.00733038285838,-0.012217304764,0.0012217304764
1580310900189226310,-0.0134390352404,-0.00733038285838,-0.0219911485751
1580310900189266268,-0.0109955742876,-0.00366519142919,-0.0195476876223
1580310900189282501,-0.00610865238198,-0.00610865238198,-0.0195476876223
1580310900206117750,-0.00366519142919,0.0,0.0
1580310900206143159,0.0012217304764,-0.00488692190558,0.00977384381117
1580310900206155272,0.00366519142919,-0.00733038285838,-0.0146607657168
1580310900206204781,-0.00610865238198,-0.00977384381117,-0.0219911485751
1580310900226293867,-0.00366519142919,-0.00977384381117,-0.0012217304764
1580310900226317382,0.0,0.00366519142919,0.00244346095279
1580310900226328607,0.00610865238198,0.00244346095279,0.0146607657168
1580310900226353016,0.00855211333477,0.0,-0.00855211333477
1580310900226386220,0.00488692190558,-0.00488692190558,0.0
1580310900242376955,-0.00244346095279,0.00488692190558,-0.0109955742876
1580310900242389945,0.00366519142919,0.00733038285838,0.0171042266695
1580310900242423517,0.00366519142919,0.0,0.0158824961931
1580310900242479267,-0.0012217304764,-0.00244346095279,0.0
1580310900254767678,0.00733038285838,-0.00610865238198,0.0
1580310900254791158,-0.00733038285838,-0.00488692190558,0.00488692190558
1580310900254799895,0.0,-0.00244346095279,-0.0183259571459
1580310900254822976,0.0012217304764,0.00488692190558,0.00488692190558
1580310900274638122,-0.00488692190558,0.00488692190558,0.00366519142919
1580310900274657597,-0.012217304764,0.00977384381117,0.0
1580310900274692364,-0.00610865238198,-0.00244346095279,0.00610865238198
1580310900274704221,-0.00855211333477,0.00244346095279,-0.00366519142919
1580310900284682352,-0.00610865238198,-0.00855211333477,-0.00244346095279
1580310900284688816,-0.00366519142919,-0.00610865238198,-0.00977384381117
1580310900284720592,-0.00977384381117,-0.00733038285838,-0.0219911485751
1580310900284758846,-0.00855211333477,-0.012217304764,-0.00733038285838
1580310900302758703,-0.00733038285838,-0.0146607657168,0.0012217304764
1580310900302771745,-0.00977384381117,-0.012217304764,0.0012217304764
1580310900302819102,-0.0134390352404,-0.0183259571459,0.00733038285838
1580310900318610641,-0.00366519142919,-0.00733038285838,0.00855211333477
1580310900318633384,-0.00977384381117,-0.00610865238198,0.0012217304764
1580310900318648022,-0.0232128790515,-0.00488692190558,-0.0183259571459
1580310900318723056,-0.0146607657168,-0.00610865238198,-0.0183259571459
1580310900327336600,-0.00733038285838,-0.00733038285838,-0.0183259571459
1580310900327344676,-0.0012217304764,0.00244346095279,-0.0012217304764
1580310900327355235,0.00244346095279,0.00488692190558,0.0
1580310900327364273,0.00366519142919,0.00488692190558,0.0158824961931
1580310900346089936,0.00855211333477,0.0012217304764,0.0146607657168
1580310900346109678,-0.0012217304764,-0.00366519142919,-0.00855211333477
1580310900346124206,-0.0207694180987,-0.0012217304764,-0.0219911485751
1580310900346135933,-0.0171042266695,0.00366519142919,-0.0109955742876
1580310900352972997,0.00977384381117,0.00366519142919,0.00977384381117
1580310900352984375,0.0,-0.00610865238198,-0.00610865238198
1580310900353024385,-0.00244346095279,-0.00733038285838,-0.00488692190558
1580310900357798969,0.00244346095279,0.0,0.012217304764
1580310900363790027,0.00244346095279,0.00610865238198,0.00855211333477
1580310900368239770,0.0012217304764,0.00610865238198,0.00366519142919
1580310900368266240,0.0,0.00610865238198,0.00610865238198
1580310900372289782,0.00244346095279,0.0134390352404,0.0
1580310900376829270,0.0012217304764,0.00733038285838,0.00855211333477
1580310900383440603,-0.00855211333477,-0.00733038285838,-0.00488692190558
1580310900390454962,0.0,-0.00488692190558,-0.0109955742876
1580310900390488199,0.00855211333477,-0.00366519142919,0.00366519142919
1580310900395627413,0.00244346095279,0.00244346095279,-0.0012217304764
1580310900395638677,-0.0012217304764,-0.00610865238198,0.00855211333477
1580310900418229607,0.00855211333477,0.00488692190558,0.0158824961931
1580310900418245206,0.00610865238198,-0.0012217304764,0.012217304764
1580310900418255246,-0.00488692190558,-0.00855211333477,-0.00244346095279
1580310900418266247,-0.00366519142919,-0.00488692190558,-0.0109955742876
1580310900425690831,0.00488692190558,0.0,-0.012217304764
1580310900425730785,-0.00733038285838,-0.00366519142919,-0.0171042266695
1580310900441695022,-0.00366519142919,0.0012217304764,-0.00244346095279
1580310900441710941,-0.0171042266695,-0.00855211333477,-0.00610865238198
1580310900441722358,-0.00244346095279,-0.0012217304764,-0.00488692190558
1580310900441804049,-0.00977384381117,-0.00488692190558,-0.0232128790515
1580310900450533501,-0.012217304764,-0.0146607657168,0.0012217304764
1580310900450550398,0.0,0.0012217304764,0.012217304764
1580310900450558284,-0.00244346095279,0.00366519142919,-0.00488692190558
1580310900464053982,-0.00244346095279,0.00610865238198,-0.0158824961931
1580310900464082937,-0.00610865238198,0.00733038285838,-0.00855211333477
1580310900472287493,-0.00977384381117,-0.00488692190558,0.0
1580310900472741352,-0.00488692190558,-0.0134390352404,0.00244346095279
1580310900472767035,0.00366519142919,-0.00855211333477,-0.00610865238198
1580310900479418475,-0.00855211333477,-0.00366519142919,-0.00610865238198
1580310900479432390,0.0,0.0012217304764,-0.00366519142919
1580310900484835436,0.00610865238198,0.00733038285838,0.00733038285838
1580310900484843314,0.0,0.00488692190558,0.00366519142919
1580310900506554017,-0.0012217304764,0.0012217304764,0.0171042266695
1580310900506563896,0.00855211333477,0.00488692190558,0.0109955742876
1580310900506610764,-0.00366519142919,0.0134390352404,-0.00366519142919
1580310900506619300,-0.00366519142919,0.00488692190558,-0.012217304764
1580310900520174295,0.0,0.0171042266695,0.00366519142919
1580310900520182293,0.00488692190558,-0.00366519142919,0.0109955742876
1580310900520220499,0.00855211333477,0.0,-0.00244346095279
1580310900529844823,0.0,0.00977384381117,0.00366519142919
1580310900529868839,-0.00977384381117,0.00610865238198,-0.00488692190558
1580310900529895369,-0.0012217304764,0.00610865238198,-0.0012217304764
1580310900536946663,0.00244346095279,-0.00733038285838,0.00488692190558
1580310900536956222,0.0,-0.00366519142919,-0.00855211333477
1580310900537016772,-0.0134390352404,-0.00733038285838,-0.0134390352404
1580310900556873899,0.0012217304764,-0.00977384381117,0.00488692190558
1580310900556906057,-0.0012217304764,-0.00488692190558,-0.00977384381117
1580310900556922210,0.0,0.0109955742876,0.0
1580310900556935689,0.0,-0.00244346095279,0.00610865238198
1580310900565993005,-0.0012217304764,0.0012217304764,0.0012217304764
1580310900566008169,-0.0012217304764,-0.00733038285838,-0.0012217304764
1580310900572547430,-0.0171042266695,0.0,-0.0207694180987
1580310900572562438,-0.0109955742876,-0.012217304764,-0.012217304764
1580310900578353579,0.0012217304764,-0.00366519142919,0.0012217304764
1580310900578368185,-0.00855211333477,-0.00488692190558,-0.00855211333477
1580310900596460088,-0.00977384381117,-0.00244346095279,-0.0219911485751
1580310900596495901,0.0,0.00244346095279,-0.00977384381117
1580310900596560928,-0.0134390352404,-0.00610865238198,-0.0109955742876
1580310900596575033,0.00488692190558,0.00244346095279,-0.00855211333477
1580310900601878328,-0.00244346095279,-0.0012217304764,-0.00855211333477
1580310900602243421,-0.0109955742876,-0.00610865238198,-0.0256563400043
1580310900609768436,-0.012217304764,-0.00610865238198,-0.0012217304764
1580310900618793320,0.00610865238198,0.0,-0.00610865238198
1580310900618833685,-0.0012217304764,-0.00977384381117,-0.00977384381117
1580310900618872583,-0.00977384381117,-0.00610865238198,-0.00244346095279
1580310900625736271,0.0,0.00488692190558,-0.00488692190558
1580310900625769244,0.0,-0.00977384381117,-0.00855211333477
1580310900631721948,-0.00855211333477,-0.0109955742876,-0.0012217304764
1580310900631778946,-0.0012217304764,-0.00855211333477,-0.0146607657168
1580310900650448167,-0.00244346095279,-0.00488692190558,-0.0329867228627
1580310900650458803,-0.00855211333477,-0.0134390352404,-0.00366519142919
1580310900650497529,-0.00244346095279,-0.00244346095279,0.00733038285838
1580310900650508769,0.0,-0.00244346095279,-0.00610865238198
1580310900658643005,-0.00488692190558,0.0012217304764,-0.0134390352404
1580310900658656119,-0.0109955742876,-0.00488692190558,-0.0207694180987
1580310900663468177,-0.0158824961931,-0.00610865238198,-0.0256563400043
1580310900663521019,-0.012217304764,-0.00733038285838,-0.012217304764
1580310900667366208,-0.0158824961931,-0.0012217304764,0.0
1580310900670564031,-0.0012217304764,0.00977384381117,-0.00366519142919
1580310900674496397,0.0012217304764,0.0146607657168,0.00488692190558
1580310900680523762,0.00244346095279,0.00733038285838,0.00733038285838
1580310900685292258,0.0,-0.00855211333477,-0.00244346095279
1580310900692121728,-0.00610865238198,0.0,-0.00610865238198
1580310900705519104,0.0,0.0012217304764,-0.00977384381117
