%time,field.x,field.y,field.z
1580310897415928830,0.00281085276034,0.0,0.00733038285838
1580310897415946707,-0.000702669556853,0.0,0.00733038285838
1580310897415964223,-0.000702669556853,0.00327929913157,0.00733038285838
1580310897415986550,-0.000702669556853,0.00327929913157,0.00244346095279
1580310897415997990,0.000234223185618,0.00327929913157,0.00244346095279
1580310897416635877,0.000234223185618,0.00163956229932,0.00244346095279
1580310897417177569,0.000234223185618,0.00163956229932,0.00855211333477
1580310897419604119,0.00163956229932,0.00163956229932,0.00855211333477
1580310897420305563,0.00163956229932,-0.000936892742471,0.00855211333477
1580310897420323249,0.00163956229932,-0.000936892742471,0.0
1580310897420347497,0.0,-0.000936892742471,0.0
1580310897420864270,0.0,-0.00210818320348,0.0
1580310897422370746,0.0,-0.00210818320348,0.00366519142919
1580310897422393272,0.000702669556853,-0.00210818320348,0.00366519142919
1580310897422405777,0.000702669556853,-0.00327929913157,0.00366519142919
1580310897422430470,0.000702669556853,-0.00327929913157,0.00855211333477
1580310897422473140,0.00210818320348,-0.00327929913157,0.00855211333477
1580310897422494550,0.00210818320348,-0.00163956229932,0.00855211333477
1580310897422533680,0.00210818320348,-0.00163956229932,-0.0207694180987
1580310897422555528,0.00257662957472,-0.00163956229932,-0.0207694180987
1580310897422575412,0.00257662957472,0.0,-0.0207694180987
1580310897422591705,0.00257662957472,0.0,0.00244346095279
1580310897422597346,0.00281085276034,0.0,0.00244346095279
1580310897422614063,0.00281085276034,-0.00327929913157,0.00244346095279
1580310897422749495,0.00281085276034,-0.00327929913157,0.00977384381117
1580310897423321590,0.00327929913157,-0.00327929913157,0.00977384381117
1580310897423458591,0.00327929913157,-0.00327929913157,0.00977384381117
1580310897423463437,0.00327929913157,-0.00327929913157,0.00733038285838
1580310897423471239,0.00117111592809,-0.00327929913157,0.00733038285838
1580310897423883796,0.00117111592809,-0.00515308461651,0.00733038285838
1580310897423909919,0.00117111592809,-0.00515308461651,0.00488692190558
1580310897423915032,0.00257662957472,-0.00515308461651,0.00488692190558
1580310897423929437,0.00257662957472,-0.0049188614309,0.00488692190558
1580310897423971670,0.00257662957472,-0.0049188614309,-0.00733038285838
1580310897424259257,0.00257662957472,-0.0049188614309,-0.00733038285838
1580310897424280473,0.00257662957472,-0.00327929913157,-0.00733038285838
1580310897424604872,0.00374774550281,-0.00327929913157,-0.00733038285838
1580310897424953046,0.00374774550281,-0.00327929913157,0.00855211333477
1580310897425262698,0.00374774550281,-0.00117111592809,0.00855211333477
1580310897425489112,0.00374774550281,-0.00117111592809,0.0158824961931
1580310897426060097,0.000468446371235,-0.00117111592809,0.0158824961931
1580310897426449603,0.000468446371235,0.00210818320348,0.0158824961931
1580310897426821245,0.000468446371235,0.00210818320348,0.00610865238198
1580310897427012796,0.0,0.00210818320348,0.00610865238198
1580310897427038416,0.0,0.000702669556853,0.00610865238198
1580310897427052067,0.0,0.000702669556853,-0.0109955742876
1580310897427090953,0.00327929913157,0.000702669556853,-0.0109955742876
1580310897427096592,0.00327929913157,0.00445041505966,-0.0109955742876
1580310897427137118,0.00327929913157,0.00445041505966,0.00977384381117
1580310897427144924,0.00327929913157,0.00421619187404,0.00977384381117
1580310897427179291,-0.000234223185618,0.00421619187404,0.00977384381117
1580310897427185800,-0.000234223185618,0.00421619187404,-0.00733038285838
1580310897427578404,-0.00163956229932,0.00421619187404,-0.00733038285838
1580310897427602165,-0.00163956229932,0.0,-0.00733038285838
1580310897427666159,-0.00163956229932,0.0,0.00366519142919
1580310897427690119,0.000936892742471,0.0,0.00366519142919
1580310897427757697,0.000936892742471,-0.00304507594595,0.00366519142919
1580310897428018303,0.000936892742471,-0.00304507594595,-0.00244346095279
1580310897428044732,0.00187378548494,-0.00304507594595,-0.00244346095279
1580310897428053946,0.00187378548494,-0.00421619187404,-0.00244346095279
1580310897428060589,0.00187378548494,-0.00421619187404,0.00366519142919
1580310897428064967,-0.000936892742471,-0.00421619187404,0.00366519142919
1580310897428074064,-0.000936892742471,0.000234223185618,0.00366519142919
1580310897428082854,-0.000936892742471,0.000234223185618,-0.00244346095279
1580310897428088386,0.00257662957472,0.000234223185618,-0.00244346095279
1580310897428540906,0.00257662957472,0.0,-0.00244346095279
1580310897428563051,0.00257662957472,0.0,0.00610865238198
1580310897428573280,0.00351352231719,0.0,0.00610865238198
1580310897428579802,0.00351352231719,0.000702669556853,0.00610865238198
1580310897428588869,0.00351352231719,0.000702669556853,0.00733038285838
1580310897428596315,-0.000702669556853,0.000702669556853,0.00733038285838
1580310897428883544,-0.000702669556853,0.00210818320348,0.00733038285838
1580310897428904394,-0.000702669556853,0.00210818320348,0.00488692190558
1580310897428910585,0.0,0.00210818320348,0.00488692190558
1580310897428920602,0.0,0.000936892742471,0.00488692190558
1580310897428925053,0.0,0.000936892742471,0.00977384381117
1580310897428934873,0.00140533911371,0.000936892742471,0.00977384381117
1580310897429313046,0.00140533911371,-0.000234223185618,0.00977384381117
1580310897429680107,0.00140533911371,-0.000234223185618,0.0012217304764
1580310897429862933,0.00304507594595,-0.000234223185618,0.0012217304764
1580310897430140416,0.00304507594595,-0.00281085276034,0.0012217304764
1580310897430255181,0.00304507594595,-0.00281085276034,0.00855211333477
1580310897430260420,0.00327929913157,-0.00281085276034,0.00855211333477
1580310897430381639,0.00327929913157,-0.00140533911371,0.00855211333477
1580310897433956323,0.00327929913157,-0.00140533911371,0.00610865238198
1580310897434135183,0.00304507594595,-0.00140533911371,0.00610865238198
1580310897434145261,0.00304507594595,0.0023424063891,0.00610865238198
1580310897434150843,0.00304507594595,0.0023424063891,-0.00733038285838
1580310897434158393,0.00140533911371,0.0023424063891,-0.00733038285838
1580310897434186149,0.00140533911371,0.00257662957472,-0.00733038285838
1580310897434291527,0.00140533911371,0.00257662957472,-0.00610865238198
1580310897436775183,0.00117111592809,0.00257662957472,-0.00610865238198
1580310897436948349,0.00117111592809,0.000468446371235,-0.00610865238198
1580310897436972097,0.00117111592809,0.000468446371235,-0.00733038285838
1580310897437029102,0.00117111592809,0.000468446371235,-0.00733038285838
1580310897437051528,0.00117111592809,0.0023424063891,-0.00733038285838
1580310897437196670,0.00117111592809,0.0023424063891,-0.0158824961931
1580310897437224271,0.00351352231719,0.0023424063891,-0.0158824961931
1580310897437338624,0.00351352231719,0.00257662957472,-0.0158824961931
1580310897437343230,0.00351352231719,0.00257662957472,-0.0109955742876
1580310897437609224,-0.000234223185618,0.00257662957472,-0.0109955742876
1580310897437723056,-0.000234223185618,0.00140533911371,-0.0109955742876
1580310897437730862,-0.000234223185618,0.00140533911371,-0.00488692190558
1580310897437747712,-0.0023424063891,0.00140533911371,-0.00488692190558
1580310897437792354,-0.0023424063891,0.00374774550281,-0.00488692190558
1580310897437869187,-0.0023424063891,0.00374774550281,0.0195476876223
1580310897437905203,0.00163956229932,0.00374774550281,0.0195476876223
1580310897437935854,0.00163956229932,-0.00304507594595,0.0195476876223
1580310897438294931,0.00163956229932,-0.00304507594595,0.0012217304764
1580310897442886530,0.00702704463438,-0.00304507594595,0.0012217304764
1580310897442891060,0.00702704463438,-0.00843238374809,0.0012217304764
1580310897442906594,0.00702704463438,-0.00843238374809,0.00977384381117
1580310897460602804,0.00608997735898,-0.00843238374809,0.00977384381117
1580310897460609127,0.00608997735898,-0.00749549100561,0.00977384381117
1580310897460615109,0.00608997735898,-0.00749549100561,-0.0012217304764
1580310897460628041,0.0,-0.00749549100561,-0.0012217304764
1580310897468746727,0.0,-0.00421619187404,-0.0012217304764
1580310897468756281,-0.00374774550281,-0.00421619187404,-0.0012217304764
1580310897476997604,-0.00374774550281,-0.00351352231719,-0.0012217304764
1580310897477050999,-0.00374774550281,-0.00351352231719,0.00366519142919
1580310897483786570,-0.00374774550281,-0.00351352231719,0.00244346095279
1580310897483797836,-0.00281085276034,-0.00351352231719,0.00244346095279
1580310897504354278,-0.00281085276034,-0.00163956229932,0.00244346095279
1580310897504367981,-0.00281085276034,-0.00163956229932,0.012217304764
1580310897504379914,-0.00163956229932,-0.00163956229932,0.012217304764
1580310897504388760,-0.00163956229932,-0.00281085276034,0.012217304764
1580310897512505787,-0.00163956229932,-0.00281085276034,0.0012217304764
1580310897512514965,0.0,-0.00281085276034,0.0012217304764
1580310897512528952,0.0,0.00187378548494,0.0012217304764
1580310897520975609,0.0,0.00187378548494,-0.0012217304764
1580310897521007761,-0.000234223185618,0.00187378548494,-0.0012217304764
1580310897528672810,-0.000234223185618,0.00163956229932,-0.0012217304764
1580310897528762417,-0.000234223185618,0.00163956229932,0.0195476876223
1580310897550202891,0.0023424063891,0.00163956229932,0.0195476876223
1580310897550209845,0.0023424063891,-0.00257662957472,0.0195476876223
1580310897550217448,0.0023424063891,-0.00257662957472,0.0
1580310897550223656,0.00187378548494,-0.00257662957472,0.0
1580310897557716565,0.00187378548494,-0.00257662957472,0.0
1580310897557723581,0.00187378548494,-0.00257662957472,-0.0171042266695
1580310897557740304,0.00187378548494,-0.00257662957472,-0.0171042266695
1580310897557750878,0.00187378548494,0.00210818320348,-0.0171042266695
1580310897559325894,0.00187378548494,0.00210818320348,-0.00488692190558
1580310897567689769,0.000468446371235,0.00210818320348,-0.00488692190558
1580310897567705851,0.000468446371235,-0.00163956229932,-0.00488692190558
1580310897567753069,0.000468446371235,-0.00163956229932,0.00488692190558
1580310897576046595,-0.000234223185618,-0.00163956229932,0.00488692190558
1580310897576078016,-0.000234223185618,-0.00445041505966,0.00488692190558
1580310897584281359,-0.000234223185618,-0.00445041505966,0.00366519142919
1580310897584294952,0.00163956229932,-0.00445041505966,0.00366519142919
1580310897603586266,0.00163956229932,0.00257662957472,0.00366519142919
1580310897603602937,0.00163956229932,0.00257662957472,-0.00610865238198
1580310897603610098,0.00140533911371,0.00257662957472,-0.00610865238198
1580310897603633094,0.00140533911371,0.00281085276034,-0.00610865238198
1580310897619561547,0.00140533911371,0.00281085276034,0.00366519142919
1580310897619619208,0.00257662957472,0.00281085276034,0.00366519142919
1580310897619634206,0.00257662957472,0.0023424063891,0.00366519142919
1580310897627330033,0.00257662957472,0.0023424063891,0.00733038285838
1580310897627341720,0.00562153098775,0.0023424063891,0.00733038285838
1580310897627351096,0.00562153098775,0.000936892742471,0.00733038285838
1580310897627361397,0.00562153098775,0.000936892742471,-0.0109955742876
1580310897628896964,0.00140533911371,0.000936892742471,-0.0109955742876
1580310897635895335,0.00140533911371,0.00163956229932,-0.0109955742876
1580310897635910300,0.00140533911371,0.00163956229932,-0.0256563400043
1580310897635919498,-0.00210818320348,0.00163956229932,-0.0256563400043
1580310897642431518,-0.00210818320348,0.00117111592809,-0.0256563400043
1580310897642452151,-0.00210818320348,0.00117111592809,-0.00610865238198
1580310897650986137,-0.000936892742471,0.00117111592809,-0.00610865238198
1580310897659679171,-0.000936892742471,0.00140533911371,-0.00610865238198
1580310897659692849,-0.000936892742471,0.00140533911371,-0.00855211333477
1580310897659709587,-0.00163956229932,0.00140533911371,-0.00855211333477
1580310897667930335,-0.00163956229932,0.00210818320348,-0.00855211333477
1580310897667981964,-0.00163956229932,0.00210818320348,-0.00244346095279
1580310897675263621,0.0,0.00210818320348,-0.00244346095279
1580310897675289664,0.0,0.000936892742471,-0.00244346095279
1580310897696984995,0.0,0.000936892742471,0.00366519142919
1580310897697005829,0.000702669556853,0.000936892742471,0.00366519142919
1580310897697018549,0.000702669556853,-0.00140533911371,0.00366519142919
1580310897697030721,0.000702669556853,-0.00140533911371,-0.00977384381117
1580310897706325296,-0.00257662957472,-0.00140533911371,-0.00977384381117
1580310897706368260,-0.00257662957472,-0.00515308461651,-0.00977384381117
1580310897706403689,-0.00257662957472,-0.00515308461651,-0.00366519142919
1580310897715209310,-0.000702669556853,-0.00515308461651,-0.00366519142919
1580310897722846399,-0.000702669556853,-0.00117111592809,-0.00366519142919
1580310897722861394,-0.000702669556853,-0.00117111592809,-0.012217304764
1580310897729804054,0.00117111592809,-0.00117111592809,-0.012217304764
1580310897743952458,0.00117111592809,0.00163956229932,-0.012217304764
1580310897743992678,0.00117111592809,0.00163956229932,-0.0012217304764
1580310897750311956,0.00140533911371,0.00163956229932,-0.0012217304764
1580310897750325399,0.00140533911371,0.00210818320348,-0.0012217304764
1580310897777357473,0.00140533911371,0.00210818320348,-0.00855211333477
1580310897777373915,-0.000234223185618,0.00210818320348,-0.00855211333477
1580310897777382188,-0.000234223185618,-0.000702669556853,-0.00855211333477
1580310897777392213,-0.000234223185618,-0.000702669556853,-0.0183259571459
1580310897781274365,-0.000234223185618,-0.000702669556853,-0.0183259571459
1580310897781285358,-0.000234223185618,0.000936892742471,-0.0183259571459
1580310897790023057,-0.000234223185618,0.000936892742471,-0.0158824961931
1580310897801865856,-0.00117111592809,0.000936892742471,-0.0158824961931
1580310897809775412,0.00140533911371,0.000936892742471,-0.0158824961931
1580310897818832724,0.00140533911371,-0.00327929913157,-0.0158824961931
1580310897824037737,0.00140533911371,-0.00327929913157,0.00610865238198
1580310897824049885,0.00140533911371,-0.00398196868843,0.00610865238198
1580310897833952375,0.00140533911371,-0.00398196868843,0.0109955742876
1580310897839270984,0.00257662957472,-0.00398196868843,0.0109955742876
1580310897839288259,0.00257662957472,-0.00515308461651,0.0109955742876
1580310897848569726,0.00257662957472,-0.00515308461651,0.00733038285838
1580310897848645144,0.000702669556853,-0.00515308461651,0.00733038285838
1580310897848688921,0.000702669556853,-0.00515308461651,0.00733038285838
1580310897848746048,0.000702669556853,-0.00515308461651,0.00244346095279
1580310897857031376,0.00257662957472,-0.00515308461651,0.00244346095279
1580310897864099417,0.00257662957472,-0.00163956229932,0.00244346095279
1580310897864106885,0.00257662957472,-0.00163956229932,0.00244346095279
1580310897864149197,0.00281085276034,-0.00163956229932,0.00244346095279
1580310897870066310,0.00281085276034,-0.00468463824528,0.00244346095279
1580310897877826627,0.00281085276034,-0.00468463824528,-0.00488692190558
1580310897877857196,0.00281085276034,-0.00468463824528,-0.00488692190558
1580310897877874821,0.00281085276034,-0.000936892742471,-0.00488692190558
1580310897885093995,0.00281085276034,-0.000936892742471,0.0012217304764
1580310897885117700,0.000936892742471,-0.000936892742471,0.0012217304764
1580310897896425914,0.000936892742471,-0.0023424063891,0.0012217304764
1580310897896445877,0.000936892742471,-0.0023424063891,0.00977384381117
1580310897908256853,0.00257662957472,-0.0023424063891,0.00977384381117
1580310897908264124,0.00257662957472,-0.00281085276034,0.00977384381117
1580310897908270986,0.00257662957472,-0.00281085276034,0.00366519142919
1580310897908276442,0.00210818320348,-0.00281085276034,0.00366519142919
1580310897916904147,0.00210818320348,-0.00187378548494,0.00366519142919
1580310897916931596,0.00210818320348,-0.00187378548494,0.012217304764
1580310897916961631,0.000702669556853,-0.00187378548494,0.012217304764
1580310897923272118,0.000702669556853,-0.0049188614309,0.012217304764
1580310897923315043,0.000702669556853,-0.0049188614309,0.00610865238198
1580310897930561032,0.0023424063891,-0.0049188614309,0.00610865238198
1580310897939546539,0.0023424063891,-0.00515308461651,0.00610865238198
1580310897939589241,0.0023424063891,-0.00515308461651,-0.0012217304764
1580310897939617640,0.00327929913157,-0.00515308461651,-0.0012217304764
1580310897939632449,0.00327929913157,-0.00374774550281,-0.0012217304764
1580310897948191394,0.00327929913157,-0.00374774550281,0.0
1580310897948209708,-0.00117111592809,-0.00374774550281,0.0
1580310897956781623,-0.00117111592809,-0.00281085276034,0.0
1580310897956801625,-0.00117111592809,-0.00281085276034,0.00733038285838
1580310897956829489,0.00187378548494,-0.00281085276034,0.00733038285838
1580310897964606863,0.00187378548494,0.000936892742471,0.00733038285838
1580310897964619449,0.00187378548494,0.000936892742471,0.00610865238198
1580310897964636275,0.00351352231719,0.000936892742471,0.00610865238198
1580310897975476710,0.00351352231719,0.00187378548494,0.00610865238198
1580310897975494666,0.00351352231719,0.00187378548494,0.00977384381117
1580310897975509998,0.00281085276034,0.00187378548494,0.00977384381117
1580310897975519833,0.00281085276034,-0.00140533911371,0.00977384381117
1580310897980830755,0.00281085276034,-0.00140533911371,0.0
1580310897980857068,0.00281085276034,-0.00140533911371,0.0
1580310897980869252,0.00281085276034,-0.0023424063891,0.0
1580310897988224708,0.00281085276034,-0.0023424063891,0.00610865238198
1580310897988255599,0.00117111592809,-0.0023424063891,0.00610865238198
1580310897999212500,0.00117111592809,0.00257662957472,0.00610865238198
1580310897999227058,0.00117111592809,0.00257662957472,-0.00855211333477
1580310897999239767,-0.000234223185618,0.00257662957472,-0.00855211333477
1580310898008079604,-0.000234223185618,0.0,-0.00855211333477
1580310898008094566,-0.000234223185618,0.0,-0.0134390352404
1580310898008115422,-0.000702669556853,0.0,-0.0134390352404
1580310898026659781,-0.000702669556853,0.000468446371235,-0.0134390352404
1580310898026673974,-0.000702669556853,0.000468446371235,-0.0183259571459
1580310898026683439,0.00117111592809,0.000468446371235,-0.0183259571459
1580310898026693048,0.00117111592809,-0.00304507594595,-0.0183259571459
1580310898030019365,0.00117111592809,-0.00304507594595,-0.0109955742876
1580310898036894103,0.00281085276034,-0.00304507594595,-0.0109955742876
1580310898036960135,0.00281085276034,-0.00163956229932,-0.0109955742876
1580310898044547463,0.00281085276034,-0.00163956229932,-0.00977384381117
1580310898044607722,-0.000468446371235,-0.00163956229932,-0.00977384381117
1580310898055215827,-0.000468446371235,-0.0023424063891,-0.00977384381117
1580310898055226359,-0.000468446371235,-0.0023424063891,-0.0109955742876
1580310898055235389,-0.000468446371235,0.00117111592809,-0.0109955742876
1580310898055264927,-0.00187378548494,0.00117111592809,-0.0109955742876
1580310898057901378,-0.00187378548494,0.00117111592809,-0.00855211333477
1580310898057910947,0.00140533911371,0.00117111592809,-0.00855211333477
1580310898057942840,0.00140533911371,-0.00374774550281,-0.00855211333477
1580310898057989782,0.00140533911371,-0.00374774550281,0.00977384381117
1580310898069465804,0.00327929913157,-0.00374774550281,0.00977384381117
1580310898069494875,0.00327929913157,-0.00210818320348,0.00977384381117
1580310898077811336,0.00327929913157,-0.00210818320348,-0.00488692190558
1580310898077883936,0.00281085276034,-0.00210818320348,-0.00488692190558
1580310898085546752,0.00281085276034,0.00140533911371,-0.00488692190558
1580310898085554826,0.00281085276034,0.00140533911371,0.0
1580310898085566154,0.000468446371235,0.00140533911371,0.0
1580310898085605232,0.000468446371235,-0.000702669556853,0.0
1580310898094895644,0.000468446371235,-0.000702669556853,0.0
1580310898094926424,-0.000702669556853,-0.000702669556853,0.0
1580310898099434769,-0.000702669556853,-0.00117111592809,0.0
1580310898099491814,-0.000702669556853,-0.00117111592809,0.00366519142919
1580310898099505318,0.00281085276034,-0.00117111592809,0.00366519142919
1580310898108224878,0.00281085276034,0.00445041505966,0.00366519142919
1580310898115042973,0.00281085276034,0.00445041505966,0.0
1580310898115059160,-0.00163956229932,0.00445041505966,0.0
1580310898115105803,-0.00163956229932,0.00163956229932,0.0
1580310898122651916,-0.00163956229932,0.00163956229932,-0.00855211333477
1580310898122675280,0.00210818320348,0.00163956229932,-0.00855211333477
1580310898127810993,0.00210818320348,-0.000936892742471,-0.00855211333477
1580310898134293482,0.00210818320348,-0.000936892742471,-0.00488692190558
1580310898140691314,0.000936892742471,-0.000936892742471,-0.00488692190558
1580310898152166974,0.000936892742471,-0.000234223185618,-0.00488692190558
1580310898152179166,0.000936892742471,-0.000234223185618,0.00855211333477
1580310898152231917,0.0,-0.000234223185618,0.00855211333477
1580310898160945491,0.0,0.00140533911371,0.00855211333477
1580310898160981926,0.0,0.00140533911371,0.0012217304764
1580310898160997558,0.0,0.00140533911371,0.0012217304764
1580310898173076631,0.0,0.00257662957472,0.0012217304764
1580310898173084798,0.0,0.00257662957472,-0.00366519142919
1580310898173089343,0.000702669556853,0.00257662957472,-0.00366519142919
1580310898173094314,0.000702669556853,0.00351352231719,-0.00366519142919
1580310898177166275,0.000702669556853,0.00351352231719,-0.00977384381117
1580310898177175787,0.00163956229932,0.00351352231719,-0.00977384381117
1580310898177193757,0.00163956229932,0.00327929913157,-0.00977384381117
1580310898177200526,0.00163956229932,0.00327929913157,-0.0146607657168
1580310898179364221,0.00327929913157,0.00327929913157,-0.0146607657168
1580310898183416715,0.00327929913157,0.0,-0.0146607657168
1580310898198901329,0.00327929913157,0.0,-0.00733038285838
1580310898211520509,0.00327929913157,0.0,-0.00733038285838
1580310898216523911,0.00327929913157,-0.000702669556853,-0.00733038285838
1580310898216533384,0.00327929913157,-0.000702669556853,0.00977384381117
1580310898216582082,0.00468463824528,-0.000702669556853,0.00977384381117
1580310898223578977,0.00468463824528,-0.00163956229932,0.00977384381117
1580310898230741516,0.00468463824528,-0.00163956229932,-0.00244346095279
1580310898240276911,0.00772971419123,-0.00163956229932,-0.00244346095279
1580310898248444947,0.00772971419123,-0.00421619187404,-0.00244346095279
1580310898248465627,0.00772971419123,-0.00421619187404,-0.0109955742876
1580310898248478030,0.00351352231719,-0.00421619187404,-0.0109955742876
1580310898256082505,0.00351352231719,-0.00140533911371,-0.0109955742876
1580310898270646651,0.00351352231719,-0.00140533911371,0.0012217304764
1580310898270665308,0.00304507594595,-0.00140533911371,0.0012217304764
1580310898270716527,0.00304507594595,-0.0023424063891,0.0012217304764
1580310898279702018,0.00304507594595,-0.0023424063891,0.00488692190558
1580310898279714625,0.00538730780213,-0.0023424063891,0.00488692190558
1580310898279843023,0.00538730780213,-0.00398196868843,0.00488692190558
1580310898279969530,0.00538730780213,-0.00398196868843,0.00855211333477
1580310898286944948,0.00421619187404,-0.00398196868843,0.00855211333477
1580310898318284250,0.00421619187404,0.000468446371235,0.00855211333477
1580310898318294043,0.00421619187404,0.000468446371235,0.012217304764
1580310898318325960,0.0049188614309,0.000468446371235,0.012217304764
1580310898318343240,0.0049188614309,0.00515308461651,0.012217304764
1580310898318354272,0.0049188614309,0.00515308461651,0.012217304764
1580310898321390583,0.00515308461651,0.00515308461651,0.012217304764
1580310898321729013,0.00515308461651,0.00421619187404,0.012217304764
1580310898321748227,0.00515308461651,0.00421619187404,0.00855211333477
1580310898321758681,0.00374774550281,0.00421619187404,0.00855211333477
1580310898321767993,0.00374774550281,0.00468463824528,0.00855211333477
1580310898321782202,0.00374774550281,0.00468463824528,0.00733038285838
1580310898321863533,0.00374774550281,0.0049188614309,0.00733038285838
1580310898321881321,-0.000936892742471,0.0049188614309,0.00733038285838
1580310898321890789,-0.000936892742471,0.0049188614309,0.0
1580310898327139608,0.000468446371235,0.0049188614309,0.0
1580310898327147954,0.000468446371235,0.00374774550281,0.0
1580310898327296196,0.00374774550281,0.00374774550281,0.0
1580310898327333405,0.00374774550281,0.00374774550281,-0.0183259571459
1580310898327342209,0.00374774550281,0.00117111592809,-0.0183259571459
1580310898335131400,0.00374774550281,0.00117111592809,-0.00977384381117
1580310898335156304,0.00608997735898,0.00117111592809,-0.00977384381117
1580310898343228375,0.00608997735898,0.000702669556853,-0.00977384381117
1580310898343251816,0.00608997735898,0.000702669556853,-0.0256563400043
1580310898358143053,0.00304507594595,0.000702669556853,-0.0256563400043
1580310898358157177,0.00304507594595,-0.00117111592809,-0.0256563400043
1580310898358170989,0.00304507594595,-0.00117111592809,-0.0207694180987
1580310898358203520,0.00163956229932,-0.00117111592809,-0.0207694180987
1580310898368983895,0.00163956229932,-0.000936892742471,-0.0207694180987
1580310898368990205,0.00163956229932,-0.000936892742471,-0.0012217304764
1580310898369009041,0.00327929913157,-0.000936892742471,-0.0012217304764
1580310898369024624,0.00327929913157,0.0023424063891,-0.0012217304764
1580310898377202117,0.00327929913157,0.0023424063891,-0.00855211333477
1580310898377210308,0.00140533911371,0.0023424063891,-0.00855211333477
1580310898381814867,0.00140533911371,0.00374774550281,-0.00855211333477
1580310898381823578,0.00140533911371,0.00374774550281,0.0109955742876
1580310898381970554,0.000936892742471,0.00374774550281,0.0109955742876
1580310898386910508,0.000936892742471,0.000234223185618,0.0109955742876
1580310898397117319,0.000936892742471,0.000234223185618,0.0342084533391
1580310898397126444,-0.000702669556853,0.000234223185618,0.0342084533391
1580310898397171297,-0.000702669556853,0.000702669556853,0.0342084533391
1580310898405416001,-0.000702669556853,0.000702669556853,0.0109955742876
1580310898405454797,-0.00187378548494,0.000702669556853,0.0109955742876
1580310898410409549,-0.00187378548494,-0.00445041505966,0.0109955742876
1580310898410420881,-0.00187378548494,-0.00445041505966,-0.00488692190558
1580310898452776587,-0.000936892742471,-0.00445041505966,-0.00488692190558
1580310898452800634,-0.000936892742471,-0.00702704463438,-0.00488692190558
1580310898452832681,-0.000936892742471,-0.00702704463438,0.00855211333477
1580310898452850054,0.00187378548494,-0.00702704463438,0.00855211333477
1580310898464632892,0.00187378548494,-0.00819816056247,0.00855211333477
1580310898464642558,0.00187378548494,-0.00819816056247,0.0012217304764
1580310898464650077,0.00210818320348,-0.00819816056247,0.0012217304764
1580310898474434608,0.00210818320348,-0.00726126782,0.0012217304764
1580310898474443961,0.00210818320348,-0.00726126782,-0.00855211333477
1580310898474461961,0.0049188614309,-0.00726126782,-0.00855211333477
1580310898474474386,0.0049188614309,-0.00632437507753,-0.00855211333477
1580310898474530167,0.0049188614309,-0.00632437507753,-0.00244346095279
1580310898485572219,0.00140533911371,-0.00632437507753,-0.00244346095279
1580310898508224017,0.00140533911371,-0.00281085276034,-0.00244346095279
1580310898508239163,0.00140533911371,-0.00281085276034,0.00244346095279
1580310898508251458,0.00187378548494,-0.00281085276034,0.00244346095279
1580310898508289131,0.00187378548494,-0.000936892742471,0.00244346095279
1580310898508301832,0.00187378548494,-0.000936892742471,0.0
1580310898516538566,0.00351352231719,-0.000936892742471,0.0
1580310898516546779,0.00351352231719,-0.00187378548494,0.0
1580310898516567809,0.00351352231719,-0.00187378548494,-0.00610865238198
1580310898516574715,0.00210818320348,-0.00187378548494,-0.00610865238198
1580310898519260603,0.00210818320348,-0.00304507594595,-0.00610865238198
1580310898519266555,0.00210818320348,-0.00304507594595,0.0
1580310898527818606,0.0,-0.00304507594595,0.0
1580310898527859908,0.0,-0.00421619187404,0.0
1580310898527871765,0.0,-0.00421619187404,-0.00855211333477
1580310898527881244,0.000468446371235,-0.00421619187404,-0.00855211333477
1580310898527892236,0.000468446371235,-0.00140533911371,-0.00855211333477
1580310898530046679,0.000468446371235,-0.00140533911371,-0.00610865238198
1580310898530056489,0.0023424063891,-0.00140533911371,-0.00610865238198
1580310898530065680,0.0023424063891,0.00304507594595,-0.00610865238198
1580310898530106076,0.0023424063891,0.00304507594595,0.0
1580310898539737723,0.00163956229932,0.00304507594595,0.0
1580310898539754492,0.00163956229932,-0.000702669556853,0.0
1580310898539765538,0.00163956229932,-0.000702669556853,-0.0109955742876
1580310898539781949,0.00210818320348,-0.000702669556853,-0.0109955742876
1580310898539824567,0.00210818320348,0.000234223185618,-0.0109955742876
1580310898543716314,0.00210818320348,0.000234223185618,-0.0146607657168
1580310898543727620,0.00210818320348,0.000234223185618,-0.0146607657168
1580310898543757348,0.00210818320348,0.00210818320348,-0.0146607657168
1580310898543779916,0.00210818320348,0.00210818320348,0.0146607657168
1580310898543834366,0.00257662957472,0.00210818320348,0.0146607657168
1580310898543850772,0.00257662957472,0.00374774550281,0.0146607657168
1580310898543861961,0.00257662957472,0.00608997735898,0.0146607657168
1580310898543892235,0.00257662957472,0.00608997735898,0.00610865238198
1580310898551602177,0.0023424063891,0.00608997735898,0.00610865238198
1580310898551613663,0.0023424063891,0.00608997735898,0.00488692190558
1580310898551630329,0.00374774550281,0.00608997735898,0.00488692190558
1580310898551640958,0.00374774550281,-0.000234223185618,0.00488692190558
1580310898551663510,0.00374774550281,-0.000234223185618,-0.0183259571459
1580310898553192521,0.00398196868843,-0.000234223185618,-0.0183259571459
1580310898553209191,0.00398196868843,-0.00281085276034,-0.0183259571459
1580310898561863453,0.00398196868843,-0.00281085276034,-0.0366519142919
1580310898561880530,-0.000702669556853,-0.00281085276034,-0.0366519142919
1580310898561887089,-0.000702669556853,-0.000936892742471,-0.0366519142919
1580310898561927745,-0.000702669556853,-0.000936892742471,-0.00610865238198
1580310898570908976,-0.00210818320348,-0.000936892742471,-0.00610865238198
1580310898579847839,-0.00210818320348,-0.00445041505966,-0.00610865238198
1580310898586262557,-0.00210818320348,-0.00445041505966,0.00610865238198
1580310898586328161,-0.000702669556853,-0.00445041505966,0.00610865238198
1580310898595548167,-0.000702669556853,-0.00398196868843,0.00610865238198
1580310898595562562,-0.000702669556853,-0.00398196868843,0.00733038285838
1580310898595571988,0.00281085276034,-0.00398196868843,0.00733038285838
1580310898595584865,0.00281085276034,-0.00210818320348,0.00733038285838
1580310898601229461,0.00281085276034,-0.00210818320348,0.0134390352404
1580310898601245897,-0.00304507594595,-0.00210818320348,0.0134390352404
1580310898601263534,-0.00304507594595,-0.00187378548494,0.0134390352404
1580310898601272214,-0.00304507594595,-0.00187378548494,0.00610865238198
1580310898601283449,-0.00398196868843,-0.00187378548494,0.00610865238198
1580310898601307049,-0.00398196868843,-0.00374774550281,0.00610865238198
1580310898601317888,-0.00398196868843,-0.00374774550281,0.00855211333477
1580310898607574023,0.00445041505966,-0.00374774550281,0.00855211333477
1580310898617992026,0.00445041505966,-0.00163956229932,0.00855211333477
1580310898618016647,0.00445041505966,-0.00163956229932,-0.0134390352404
1580310898618029380,0.0023424063891,-0.00163956229932,-0.0134390352404
1580310898625769879,0.0023424063891,0.00210818320348,-0.0134390352404
1580310898632841488,0.0023424063891,0.00210818320348,-0.00610865238198
1580310898640793356,0.00468463824528,0.00210818320348,-0.00610865238198
1580310898640820419,0.00468463824528,0.000936892742471,-0.00610865238198
1580310898640858557,0.00468463824528,0.000936892742471,-0.00977384381117
1580310898650600552,0.00187378548494,0.000936892742471,-0.00977384381117
1580310898650614237,0.00187378548494,0.00163956229932,-0.00977384381117
1580310898650626312,0.00187378548494,0.00163956229932,0.0
1580310898650635370,0.00140533911371,0.00163956229932,0.0
1580310898657592755,0.00140533911371,0.00117111592809,0.0
1580310898657674314,0.00140533911371,0.00117111592809,0.00977384381117
1580310898657690970,0.000702669556853,0.00117111592809,0.00977384381117
1580310898664469609,0.000702669556853,-0.00210818320348,0.00977384381117
1580310898664481079,0.000702669556853,-0.00210818320348,0.00855211333477
1580310898664490282,0.00257662957472,-0.00210818320348,0.00855211333477
1580310898664528170,0.00257662957472,0.000234223185618,0.00855211333477
1580310898664539035,0.00257662957472,0.000234223185618,0.012217304764
1580310898674927064,0.00163956229932,0.000234223185618,0.012217304764
1580310898681000541,0.00163956229932,0.0023424063891,0.012217304764
1580310898681046531,0.00163956229932,0.0023424063891,0.0
1580310898712483052,0.00351352231719,0.0023424063891,0.0
1580310898720633815,0.00351352231719,-0.000936892742471,0.0
1580310898720655522,0.00351352231719,-0.000936892742471,0.0
1580310898720669145,0.000936892742471,-0.000936892742471,0.0
1580310898730012721,0.000936892742471,-0.00210818320348,0.0
1580310898730022444,0.000936892742471,-0.00210818320348,-0.00977384381117
1580310898730053351,0.0,-0.00210818320348,-0.00977384381117
1580310898730061084,0.0,-0.00140533911371,-0.00977384381117
1580310898730095630,0.0,-0.00140533911371,0.00855211333477
1580310898733738320,0.00374774550281,-0.00140533911371,0.00855211333477
1580310898733751666,0.00374774550281,-0.00304507594595,0.00855211333477
1580310898733764342,0.00374774550281,-0.00304507594595,-0.00733038285838
1580310898733774568,0.000936892742471,-0.00304507594595,-0.00733038285838
1580310898737230491,0.000936892742471,-0.00140533911371,-0.00733038285838
1580310898737241668,0.000936892742471,-0.00140533911371,-0.0109955742876
1580310898737250785,0.00163956229932,-0.00140533911371,-0.0109955742876
1580310898737257681,0.00163956229932,-0.00421619187404,-0.0109955742876
1580310898743281909,0.00163956229932,-0.00421619187404,0.00488692190558
1580310898750045029,0.00257662957472,-0.00421619187404,0.00488692190558
1580310898750087523,0.00257662957472,-0.00421619187404,0.00488692190558
1580310898754252985,0.00304507594595,-0.00421619187404,0.00488692190558
1580310898761312505,0.00304507594595,-0.000936892742471,0.00488692190558
1580310898767144196,0.00304507594595,0.00140533911371,0.00488692190558
1580310898777612444,0.00304507594595,0.00140533911371,0.0109955742876
1580310898784424226,0.00304507594595,0.00140533911371,0.0171042266695
1580310898797438175,0.00117111592809,0.00140533911371,0.0171042266695
1580310898797468148,0.000702669556853,0.00140533911371,0.0171042266695
1580310898803067020,0.000702669556853,0.000936892742471,0.0171042266695
1580310898803074609,0.000702669556853,-0.00140533911371,0.0171042266695
1580310898803114218,0.000702669556853,-0.00140533911371,0.00855211333477
1580310898811544230,0.00163956229932,-0.00140533911371,0.00855211333477
1580310898819046077,0.00163956229932,0.000936892742471,0.00855211333477
1580310898819063584,0.00163956229932,0.000936892742471,0.00610865238198
1580310898819072575,0.00351352231719,0.000936892742471,0.00610865238198
1580310898825870129,0.00351352231719,0.000936892742471,0.00610865238198
1580310898825879230,0.00351352231719,0.000936892742471,0.0109955742876
1580310898825900680,0.000234223185618,0.000936892742471,0.0109955742876
1580310898825955640,0.000234223185618,0.00374774550281,0.0109955742876
1580310898832922337,0.000234223185618,0.00374774550281,0.00733038285838
1580310898832934551,-0.00117111592809,0.00374774550281,0.00733038285838
1580310898832947317,-0.00117111592809,0.00445041505966,0.00733038285838
1580310898840582178,-0.00117111592809,0.00445041505966,-0.00244346095279
1580310898840601034,0.00117111592809,0.00445041505966,-0.00244346095279
1580310898840611855,0.00117111592809,0.000702669556853,-0.00244346095279
1580310898840676459,0.00117111592809,0.000702669556853,0.00977384381117
1580310898846356356,-0.000234223185618,0.000702669556853,0.00977384381117
1580310898846407437,-0.000234223185618,-0.000702669556853,0.00977384381117
1580310898853974587,-0.000234223185618,-0.000702669556853,-0.0109955742876
1580310898856797144,-0.000468446371235,-0.000702669556853,-0.0109955742876
1580310898863020842,-0.000468446371235,0.00304507594595,-0.0109955742876
1580310898870384653,-0.000468446371235,0.00304507594595,0.0
1580310898870456400,-0.00327929913157,0.00304507594595,0.0
1580310898876929534,-0.00327929913157,0.00445041505966,0.0
1580310898876984321,-0.00327929913157,0.00445041505966,-0.0134390352404
1580310898903769082,-0.00257662957472,0.00445041505966,-0.0134390352404
1580310898903778908,-0.00257662957472,0.000936892742471,-0.0134390352404
1580310898903815125,-0.00257662957472,0.000936892742471,-0.0232128790515
1580310898903845729,0.00257662957472,0.000936892742471,-0.0232128790515
1580310898911039830,0.00257662957472,0.00163956229932,-0.0232128790515
1580310898911048998,0.00257662957472,0.00163956229932,-0.00855211333477
1580310898911303434,0.00351352231719,0.00163956229932,-0.00855211333477
1580310898917432218,0.00351352231719,-0.00187378548494,-0.00855211333477
1580310898922317937,0.00351352231719,-0.00187378548494,-0.0134390352404
1580310898929583087,0.00117111592809,-0.00187378548494,-0.0134390352404
1580310898937055782,0.00117111592809,-0.00257662957472,-0.0134390352404
1580310898943012917,0.00117111592809,-0.00257662957472,-0.0158824961931
1580310898952184050,0.000936892742471,-0.00257662957472,-0.0158824961931
1580310898952227663,0.000936892742471,-0.000468446371235,-0.0158824961931
1580310898952247985,0.000936892742471,-0.000468446371235,0.0109955742876
1580310898958696622,0.00304507594595,-0.000468446371235,0.0109955742876
1580310898963365573,0.00304507594595,0.000702669556853,0.0109955742876
1580310898963728405,0.00304507594595,0.000702669556853,0.0146607657168
1580310898969402086,0.00281085276034,0.000702669556853,0.0146607657168
1580310898979018241,0.00281085276034,0.000702669556853,0.0146607657168
1580310898979110821,0.00281085276034,0.000702669556853,-0.0109955742876
1580310898983823445,-0.000234223185618,0.000702669556853,-0.0109955742876
1580310899014014513,-0.000234223185618,-0.000936892742471,-0.0109955742876
1580310899027422632,-0.000234223185618,-0.000936892742471,0.00855211333477
1580310899027443655,0.0,-0.000936892742471,0.00855211333477
1580310899047760101,0.0,-0.00655859826314,0.00855211333477
1580310899047774434,0.0,-0.00655859826314,-0.00244346095279
1580310899047785993,0.00468463824528,-0.00655859826314,-0.00244346095279
1580310899047793211,0.00468463824528,-0.00327929913157,-0.00244346095279
1580310899047801713,0.00468463824528,-0.00327929913157,-0.0256563400043
1580310899049356527,0.00468463824528,-0.00327929913157,-0.0256563400043
1580310899049400013,0.00468463824528,-0.00281085276034,-0.0256563400043
1580310899049412258,0.00468463824528,-0.00281085276034,-0.00488692190558
1580310899049422530,0.00281085276034,-0.00281085276034,-0.00488692190558
1580310899049438229,0.00281085276034,-0.00187378548494,-0.00488692190558
1580310899049450480,0.00281085276034,-0.00187378548494,-0.0146607657168
1580310899049457854,0.00304507594595,-0.00187378548494,-0.0146607657168
1580310899049505734,0.00304507594595,-0.00187378548494,-0.0146607657168
1580310899049517550,0.00304507594595,-0.00187378548494,-0.0232128790515
1580310899049544302,0.00163956229932,-0.00187378548494,-0.0232128790515
1580310899049553051,0.00163956229932,-0.00515308461651,-0.0232128790515
1580310899049581557,0.00163956229932,-0.00398196868843,-0.0232128790515
1580310899049595142,0.00163956229932,-0.00398196868843,-0.0158824961931
1580310899056268306,0.0,-0.00398196868843,-0.0158824961931
1580310899056278171,0.0,-0.00398196868843,-0.00488692190558
1580310899056284969,0.00421619187404,-0.00398196868843,-0.00488692190558
1580310899056291960,0.00421619187404,-0.00374774550281,-0.00488692190558
1580310899056321814,0.00421619187404,-0.00374774550281,0.0
1580310899056333561,0.00468463824528,-0.00374774550281,0.0
1580310899064427920,0.00468463824528,-0.000936892742471,0.0
1580310899064555603,0.00468463824528,-0.000936892742471,-0.0305432619099
1580310899071903422,0.00304507594595,-0.000936892742471,-0.0305432619099
1580310899082143426,0.00304507594595,0.00140533911371,-0.0305432619099
1580310899092144199,0.00304507594595,0.00140533911371,-0.0232128790515
1580310899098163297,0.00163956229932,0.00140533911371,-0.0232128790515
1580310899107486606,0.00163956229932,0.000936892742471,-0.0232128790515
1580310899116052455,0.00163956229932,0.000936892742471,-0.0012217304764
1580310899116062573,0.000468446371235,0.000936892742471,-0.0012217304764
1580310899131842784,0.000468446371235,0.000702669556853,-0.0012217304764
1580310899131854932,0.000468446371235,0.000702669556853,0.00488692190558
1580310899131864292,-0.000234223185618,0.000702669556853,0.00488692190558
1580310899131894980,-0.000234223185618,0.0023424063891,0.00488692190558
1580310899131906115,-0.000234223185618,0.0023424063891,-0.00610865238198
1580310899138054545,0.00257662957472,0.0023424063891,-0.00610865238198
1580310899138071378,0.00257662957472,0.00117111592809,-0.00610865238198
1580310899138078285,0.00257662957472,0.00117111592809,0.00855211333477
1580310899138111635,0.00562153098775,0.00117111592809,0.00855211333477
1580310899160754941,0.00562153098775,0.00117111592809,0.00855211333477
1580310899165106807,0.00562153098775,0.00117111592809,0.00733038285838
1580310899165141549,0.00257662957472,0.00117111592809,0.00733038285838
1580310899165151121,0.00257662957472,-0.000468446371235,0.00733038285838
1580310899165169144,0.00257662957472,-0.000468446371235,0.0158824961931
1580310899166048771,0.00163956229932,-0.000468446371235,0.0158824961931
1580310899166069801,0.00163956229932,-0.00140533911371,0.0158824961931
1580310899166078705,0.00163956229932,-0.00140533911371,0.00977384381117
1580310899166112457,0.00398196868843,-0.00140533911371,0.00977384381117
1580310899174151860,0.00398196868843,-0.00351352231719,0.00977384381117
1580310899174179727,0.00398196868843,-0.00351352231719,-0.0207694180987
1580310899204214028,0.00445041505966,-0.00351352231719,-0.0207694180987
1580310899206564850,0.00445041505966,-0.00163956229932,-0.0207694180987
1580310899206582077,0.00445041505966,-0.00163956229932,0.0012217304764
1580310899206593026,0.000702669556853,-0.00163956229932,0.0012217304764
1580310899206608515,0.000702669556853,-0.00187378548494,0.0012217304764
1580310899206931299,0.000702669556853,-0.00187378548494,0.00977384381117
1580310899206946652,-0.000936892742471,-0.00187378548494,0.00977384381117
1580310899206956426,-0.000936892742471,0.00281085276034,0.00977384381117
1580310899206964891,-0.000936892742471,0.00281085276034,0.00977384381117
1580310899209711147,-0.000234223185618,0.00281085276034,0.00977384381117
1580310899209719786,-0.000234223185618,0.00515308461651,0.00977384381117
1580310899209749080,-0.000234223185618,0.00515308461651,0.0109955742876
1580310899256678000,-0.00210818320348,0.00515308461651,0.0109955742876
1580310899256713458,-0.00210818320348,0.00304507594595,0.0109955742876
1580310899256725924,-0.00210818320348,0.00304507594595,0.00488692190558
1580310899256736976,0.00140533911371,0.00304507594595,0.00488692190558
1580310899256754126,0.00140533911371,0.000936892742471,0.00488692190558
1580310899256762371,0.00140533911371,0.000936892742471,0.00366519142919
1580310899256775194,0.00327929913157,0.000936892742471,0.00366519142919
1580310899256804392,0.00327929913157,0.000936892742471,0.00366519142919
1580310899256815420,0.00327929913157,0.000936892742471,-0.00733038285838
1580310899262685819,-0.00281085276034,0.000936892742471,-0.00733038285838
1580310899262727001,-0.00281085276034,-0.00140533911371,-0.00733038285838
1580310899262739269,-0.00281085276034,-0.00140533911371,0.00855211333477
1580310899262756866,0.000234223185618,-0.00140533911371,0.00855211333477
1580310899262838724,0.000234223185618,-0.000468446371235,0.00855211333477
1580310899262852027,0.000234223185618,-0.000468446371235,0.00610865238198
1580310899262887735,0.00257662957472,-0.000468446371235,0.00610865238198
1580310899263004943,0.00257662957472,0.0,0.00610865238198
1580310899263018546,0.00257662957472,0.0,0.00733038285838
1580310899263873226,0.0049188614309,0.0,0.00733038285838
1580310899263884572,0.0049188614309,-0.00187378548494,0.00733038285838
1580310899263899953,0.0049188614309,-0.00187378548494,-0.0109955742876
1580310899263938107,0.0,-0.00187378548494,-0.0109955742876
1580310899263949930,0.0,-0.00398196868843,-0.0109955742876
1580310899271299828,0.0,-0.00398196868843,0.00855211333477
1580310899271311033,-0.000936892742471,-0.00398196868843,0.00855211333477
1580310899271327003,-0.000936892742471,-0.00140533911371,0.00855211333477
1580310899271373831,-0.000936892742471,-0.000234223185618,0.00855211333477
1580310899271383848,-0.000936892742471,-0.000234223185618,0.00855211333477
1580310899271393634,-0.000936892742471,-0.000234223185618,0.00366519142919
1580310899271455011,0.0023424063891,-0.000234223185618,0.00366519142919
1580310899279868432,0.00163956229932,-0.000234223185618,0.00366519142919
1580310899279908985,0.00163956229932,0.000702669556853,0.00366519142919
1580310899279929198,0.00163956229932,0.000702669556853,-0.0109955742876
1580310899288821385,0.00210818320348,0.000702669556853,-0.0109955742876
1580310899288851581,0.00210818320348,0.0023424063891,-0.0109955742876
1580310899299839965,0.00210818320348,0.0023424063891,-0.00855211333477
1580310899299862519,-0.000234223185618,0.0023424063891,-0.00855211333477
1580310899325003779,-0.000234223185618,0.00140533911371,-0.00855211333477
1580310899325016991,-0.000234223185618,0.00140533911371,-0.0134390352404
1580310899325027670,0.00117111592809,0.00140533911371,-0.0134390352404
1580310899325041057,0.00117111592809,-0.0023424063891,-0.0134390352404
1580310899329309103,0.00117111592809,-0.0023424063891,0.00244346095279
1580310899334865116,0.00140533911371,-0.0023424063891,0.00244346095279
1580310899340468999,0.00140533911371,-0.00257662957472,0.00244346095279
1580310899347959425,0.00140533911371,-0.00257662957472,0.0012217304764
1580310899354020242,0.00515308461651,-0.00257662957472,0.0012217304764
1580310899357661314,0.00515308461651,0.00210818320348,0.0012217304764
1580310899361396613,0.00515308461651,0.00210818320348,0.00855211333477
1580310899372300638,0.00468463824528,0.00210818320348,0.00855211333477
1580310899380354821,0.00468463824528,0.00562153098775,0.00855211333477
1580310899387724088,0.00468463824528,0.00562153098775,-0.00977384381117
1580310899387787590,0.00632437507753,0.00562153098775,-0.00977384381117
1580310899395571712,0.00632437507753,0.000702669556853,-0.00977384381117
1580310899399860975,0.00632437507753,0.000702669556853,-0.00488692190558
1580310899406623207,0.00585575417337,0.000702669556853,-0.00488692190558
1580310899415151014,0.00585575417337,0.00281085276034,-0.00488692190558
1580310899422903939,0.00585575417337,0.00281085276034,-0.012217304764
1580310899428434556,0.000936892742471,0.00281085276034,-0.012217304764
1580310899432283842,0.000936892742471,0.000702669556853,-0.012217304764
1580310899438849689,0.000936892742471,0.000702669556853,-0.00977384381117
1580310899445616561,0.00210818320348,0.000702669556853,-0.00977384381117
1580310899454009357,0.00210818320348,-0.00210818320348,-0.00977384381117
1580310899464760214,0.00210818320348,-0.00210818320348,-0.00977384381117
1580310899464772289,0.0023424063891,-0.00210818320348,-0.00977384381117
1580310899464815836,0.0023424063891,-0.00257662957472,-0.00977384381117
1580310899472120312,0.0023424063891,-0.00257662957472,-0.0195476876223
1580310899472135289,0.000936892742471,-0.00257662957472,-0.0195476876223
1580310899477198773,0.000936892742471,-0.00187378548494,-0.0195476876223
1580310899483806749,0.000936892742471,-0.00187378548494,-0.00733038285838
1580310899496218428,-0.00304507594595,-0.00187378548494,-0.00733038285838
1580310899496273066,-0.00304507594595,-0.00398196868843,-0.00733038285838
1580310899514385405,-0.00304507594595,-0.00398196868843,0.0012217304764
1580310899516425274,-0.000936892742471,-0.00398196868843,0.0012217304764
1580310899516438584,-0.000936892742471,-0.00468463824528,0.0012217304764
1580310899516456241,-0.000936892742471,-0.00468463824528,0.00733038285838
1580310899516494333,-0.000702669556853,-0.00468463824528,0.00733038285838
1580310899521111036,-0.000702669556853,0.00163956229932,0.00733038285838
1580310899521118196,-0.000702669556853,0.00163956229932,0.00488692190558
1580310899521125028,0.0023424063891,0.00163956229932,0.00488692190558
1580310899521173864,0.0023424063891,0.00163956229932,0.00488692190558
1580310899524521894,0.0023424063891,0.00163956229932,0.0207694180987
1580310899524533158,-0.00117111592809,0.00163956229932,0.0207694180987
1580310899524556153,-0.00117111592809,0.0049188614309,0.0207694180987
1580310899532673347,-0.00117111592809,0.0049188614309,0.00977384381117
1580310899532710716,-0.00210818320348,0.0049188614309,0.00977384381117
1580310899543674977,-0.00210818320348,0.000702669556853,0.00977384381117
1580310899543712700,-0.00210818320348,0.000702669556853,-0.00610865238198
1580310899543723438,-0.00163956229932,0.000702669556853,-0.00610865238198
1580310899543769271,-0.00163956229932,0.000702669556853,-0.00610865238198
1580310899552810979,-0.00163956229932,0.000702669556853,-0.00977384381117
1580310899552831440,-0.000468446371235,0.000702669556853,-0.00977384381117
1580310899552844078,-0.000468446371235,0.00140533911371,-0.00977384381117
1580310899552852406,-0.000468446371235,0.00140533911371,-0.00366519142919
1580310899567584629,0.00398196868843,0.00140533911371,-0.00366519142919
1580310899567591565,0.00398196868843,0.00187378548494,-0.00366519142919
1580310899567606231,0.00398196868843,0.00187378548494,-0.00733038285838
1580310899567613837,0.00398196868843,0.00187378548494,-0.00733038285838
1580310899578031612,0.00398196868843,0.00327929913157,-0.00733038285838
1580310899578040138,0.00398196868843,0.00327929913157,-0.012217304764
1580310899578077758,0.000468446371235,0.00327929913157,-0.012217304764
1580310899585523716,0.00187378548494,0.00327929913157,-0.012217304764
1580310899585551440,0.000936892742471,0.00327929913157,-0.012217304764
1580310899585560959,0.000936892742471,0.00327929913157,0.00366519142919
1580310899599908879,0.000936892742471,0.00327929913157,-0.00366519142919
1580310899608639499,0.000936892742471,0.00257662957472,-0.00366519142919
1580310899617898073,0.000936892742471,0.00281085276034,-0.00366519142919
1580310899617908991,0.000936892742471,0.0023424063891,-0.00366519142919
1580310899617934818,0.000936892742471,0.0023424063891,-0.0012217304764
1580310899617949702,0.00327929913157,0.0023424063891,-0.0012217304764
1580310899617962963,0.00327929913157,0.00351352231719,-0.0012217304764
1580310899617978858,0.00327929913157,0.00351352231719,-0.00366519142919
1580310899617995976,0.00398196868843,0.00351352231719,-0.00366519142919
1580310899618029081,0.00398196868843,0.00351352231719,-0.00366519142919
1580310899626994712,0.00398196868843,0.00351352231719,-0.00488692190558
1580310899627016783,0.00327929913157,0.00351352231719,-0.00488692190558
1580310899627037882,0.00327929913157,0.00117111592809,-0.00488692190558
1580310899627049514,0.00327929913157,0.00117111592809,0.012217304764
1580310899627058174,0.000234223185618,0.00117111592809,0.012217304764
1580310899627066335,0.000234223185618,-0.000702669556853,0.012217304764
1580310899630553526,0.000234223185618,-0.000702669556853,0.012217304764
1580310899630561938,0.0,-0.000702669556853,0.012217304764
1580310899630596199,0.0,0.00187378548494,0.012217304764
1580310899630607319,0.0,0.00187378548494,0.00488692190558
1580310899637461829,0.00117111592809,0.00187378548494,0.00488692190558
1580310899637481241,0.00117111592809,0.00327929913157,0.00488692190558
1580310899648018783,0.00117111592809,0.00327929913157,-0.0109955742876
1580310899648046191,-0.00374774550281,0.00327929913157,-0.0109955742876
1580310899648072740,-0.00374774550281,0.00187378548494,-0.0109955742876
1580310899648089633,-0.00374774550281,0.00187378548494,-0.00488692190558
1580310899662953660,-0.00117111592809,0.00187378548494,-0.00488692190558
1580310899662996293,-0.00117111592809,0.00140533911371,-0.00488692190558
1580310899663023140,-0.00117111592809,0.00140533911371,-0.00855211333477
1580310899663035243,-0.00210818320348,0.00140533911371,-0.00855211333477
1580310899669431221,-0.00210818320348,0.00187378548494,-0.00855211333477
1580310899669438653,-0.00210818320348,0.00187378548494,0.0
1580310899669465162,0.00257662957472,0.00187378548494,0.0
1580310899669473650,0.00257662957472,0.00257662957472,0.0
1580310899673965885,0.00257662957472,0.00257662957472,-0.00488692190558
1580310899673977982,0.00421619187404,0.00257662957472,-0.00488692190558
1580310899673988380,0.00421619187404,0.0049188614309,-0.00488692190558
1580310899673998337,0.00421619187404,0.0049188614309,0.00488692190558
1580310899681691348,0.00421619187404,0.0049188614309,0.00488692190558
1580310899688332669,0.00421619187404,0.000702669556853,0.00488692190558
1580310899688349764,0.00421619187404,0.000702669556853,0.00488692190558
1580310899688363721,0.00374774550281,0.000702669556853,0.00488692190558
1580310899698827480,0.00374774550281,-0.00210818320348,0.00488692190558
1580310899698847255,0.00374774550281,-0.00210818320348,-0.00244346095279
1580310899698855957,0.00304507594595,-0.00210818320348,-0.00244346095279
1580310899698861847,0.00304507594595,0.000234223185618,-0.00244346095279
1580310899708401615,0.00304507594595,0.000234223185618,0.00977384381117
1580310899728028774,-0.00117111592809,0.000234223185618,0.00977384381117
1580310899728036632,-0.00117111592809,0.00187378548494,0.00977384381117
1580310899728070711,-0.00117111592809,0.00187378548494,0.012217304764
1580310899728081327,0.0,0.00187378548494,0.012217304764
1580310899728090857,0.0,0.00327929913157,0.012217304764
1580310899734888224,0.0,0.00327929913157,0.00610865238198
1580310899734903659,0.00281085276034,0.00327929913157,0.00610865238198
1580310899734911036,0.00281085276034,0.0049188614309,0.00610865238198
1580310899734918510,0.00281085276034,0.0049188614309,-0.0158824961931
1580310899736446052,0.00163956229932,0.0049188614309,-0.0158824961931
1580310899736463464,0.00163956229932,0.00257662957472,-0.0158824961931
1580310899736475618,0.00163956229932,0.00257662957472,0.00733038285838
1580310899736484498,-0.00187378548494,0.00257662957472,0.00733038285838
1580310899736517995,-0.00187378548494,0.00163956229932,0.00733038285838
1580310899741684694,-0.00187378548494,0.00163956229932,-0.0109955742876
1580310899741697647,0.0023424063891,0.00163956229932,-0.0109955742876
1580310899741711591,0.0023424063891,0.0023424063891,-0.0109955742876
1580310899741745325,0.0023424063891,0.0023424063891,0.0109955742876
1580310899741769497,0.00163956229932,0.0023424063891,0.0109955742876
1580310899741878123,0.00163956229932,0.00257662957472,0.0109955742876
1580310899741890828,0.00163956229932,0.00257662957472,-0.00244346095279
1580310899741910462,0.00163956229932,0.00257662957472,-0.00244346095279
1580310899766253660,0.00163956229932,0.00304507594595,-0.00244346095279
1580310899767549238,0.00163956229932,0.00304507594595,-0.00366519142919
1580310899767566215,0.00187378548494,0.00304507594595,-0.00366519142919
1580310899767576304,0.00187378548494,0.00117111592809,-0.00366519142919
1580310899767585878,0.00187378548494,-0.000936892742471,-0.00366519142919
1580310899772259956,0.00187378548494,-0.000936892742471,0.0012217304764
1580310899772272733,0.00187378548494,-0.000936892742471,0.00733038285838
1580310899772282331,-0.00281085276034,-0.000936892742471,0.00733038285838
1580310899772300379,-0.000234223185618,-0.000936892742471,0.00733038285838
1580310899772341173,-0.000234223185618,0.00117111592809,0.00733038285838
1580310899772406890,-0.000234223185618,0.00117111592809,0.00733038285838
1580310899772419463,0.00421619187404,0.00117111592809,0.00733038285838
1580310899772430396,0.00421619187404,0.00538730780213,0.00733038285838
1580310899772466297,0.00421619187404,0.00538730780213,0.0109955742876
1580310899774160588,0.00421619187404,0.00538730780213,0.0109955742876
1580310899774193701,0.00421619187404,0.00187378548494,0.0109955742876
1580310899779584346,0.00421619187404,0.00187378548494,0.00366519142919
1580310899779595532,0.00374774550281,0.00187378548494,0.00366519142919
1580310899785400093,0.00374774550281,0.00163956229932,0.00366519142919
1580310899785413325,0.00374774550281,0.00163956229932,0.00244346095279
1580310899806058154,0.00281085276034,0.00163956229932,0.00244346095279
1580310899806073961,0.00281085276034,0.00187378548494,0.00244346095279
1580310899806091532,0.00281085276034,0.00187378548494,-0.0219911485751
1580310899806100965,0.00304507594595,0.00187378548494,-0.0219911485751
1580310899815238252,0.00304507594595,0.00351352231719,-0.0219911485751
1580310899815255099,0.00304507594595,0.00351352231719,-0.00977384381117
1580310899815271474,0.00327929913157,0.00351352231719,-0.00977384381117
1580310899815332963,0.00327929913157,0.00327929913157,-0.00977384381117
1580310899827083398,0.00327929913157,0.00327929913157,0.00244346095279
1580310899827094173,0.00304507594595,0.00327929913157,0.00244346095279
1580310899827102635,0.00304507594595,0.00327929913157,0.00244346095279
1580310899827148200,0.00304507594595,0.00327929913157,0.00733038285838
1580310899830304742,0.00140533911371,0.00327929913157,0.00733038285838
1580310899830323730,0.00140533911371,0.00281085276034,0.00733038285838
1580310899836382166,0.00140533911371,0.00281085276034,-0.00855211333477
1580310899844187400,0.00281085276034,0.00281085276034,-0.00855211333477
1580310899848693662,0.00281085276034,0.000468446371235,-0.00855211333477
1580310899855550569,0.00281085276034,0.000468446371235,-0.0146607657168
1580310899861980786,-0.00163956229932,0.000468446371235,-0.0146607657168
1580310899861996038,-0.00163956229932,0.00281085276034,-0.0146607657168
1580310899862006393,-0.00163956229932,0.00281085276034,-0.0171042266695
1580310899862034340,0.000468446371235,0.00281085276034,-0.0171042266695
1580310899868599802,0.000468446371235,0.00468463824528,-0.0171042266695
1580310899868620578,0.000468446371235,0.00468463824528,-0.00366519142919
1580310899868669635,0.00304507594595,0.00468463824528,-0.00366519142919
1580310899872593038,0.00304507594595,0.00210818320348,-0.00366519142919
1580310899872601606,0.00304507594595,0.00210818320348,0.00855211333477
1580310899879132811,0.00843238374809,0.00210818320348,0.00855211333477
1580310899886829789,0.00843238374809,0.00210818320348,0.00855211333477
1580310899886847744,0.00843238374809,0.00210818320348,0.0195476876223
1580310899886859307,0.00515308461651,0.00210818320348,0.0195476876223
1580310899902898664,0.00515308461651,-0.0023424063891,0.0195476876223
1580310899910331209,0.00515308461651,-0.0023424063891,0.00488692190558
1580310899910352084,0.00398196868843,-0.0023424063891,0.00488692190558
1580310899910362360,0.00398196868843,0.000936892742471,0.00488692190558
1580310899917581548,0.00398196868843,0.000936892742471,0.0
1580310899917594499,0.00445041505966,0.000936892742471,0.0
1580310899917610877,0.00445041505966,-0.00187378548494,0.0
1580310899917620612,0.00445041505966,-0.00187378548494,-0.0171042266695
1580310899917630420,0.00374774550281,-0.00187378548494,-0.0171042266695
1580310899919300690,0.00374774550281,0.000936892742471,-0.0171042266695
1580310899919318421,0.00374774550281,0.000936892742471,-0.00610865238198
1580310899919329052,0.000702669556853,0.000936892742471,-0.00610865238198
1580310899919397866,0.000702669556853,0.00304507594595,-0.00610865238198
1580310899919818078,0.000702669556853,0.00304507594595,0.00610865238198
